[
  {
    "id": 2000,
    "businessName": "퍼니랜드",
    "longitude": 128.5932213,
    "latitude": 35.8658697,
    "address": "대구광역시 중구 달구벌대로 지하 2100, 반월당역 지하3층 1호 (덕산동)",
    "totalGameMachines": 29,
    "phone": null,
    "isOperating": true,
    "approvalDate": "2025-07-31"
  },
  {
    "id": 2001,
    "businessName": "모모스테이션 동성로점",
    "longitude": 128.5954142,
    "latitude": 35.8690515,
    "address": "대구광역시 중구 동성로 26, 법무사회관 (동성로2가)",
    "totalGameMachines": 15,
    "phone": null,
    "isOperating": true,
    "approvalDate": "2025-07-31"
  },
  {
    "id": 2002,
    "businessName": "유에프오",
    "longitude": 128.4549632,
    "latitude": 35.6932612,
    "address": "대구광역시 달성군 현풍읍 테크노상업로 62, 117호",
    "totalGameMachines": 0,
    "phone": null,
    "isOperating": true,
    "approvalDate": "2025-07-29"
  },
  {
    "id": 2003,
    "businessName": "유에프오 현풍점",
    "longitude": 128.459786,
    "latitude": 35.6924746,
    "address": "대구광역시 달성군 유가읍 테크노상업로4길 17-1, 106호",
    "totalGameMachines": 0,
    "phone": null,
    "isOperating": true,
    "approvalDate": "2025-07-29"
  },
  {
    "id": 2004,
    "businessName": "주)탑스코리아 보물섬",
    "longitude": 128.725438,
    "latitude": 35.8667306,
    "address": "대구광역시 동구 동호로 77, 1층 (신서동)",
    "totalGameMachines": 30,
    "phone": null,
    "isOperating": true,
    "approvalDate": "2025-07-16"
  },
  {
    "id": 2005,
    "businessName": "뽑기어때",
    "longitude": 128.7123607,
    "latitude": 35.8732553,
    "address": "대구광역시 동구 반야월북로 134, 1층 (각산동)",
    "totalGameMachines": 11,
    "phone": null,
    "isOperating": true,
    "approvalDate": "2025-07-07"
  },
  {
    "id": 2006,
    "businessName": "팡야팡야",
    "longitude": 128.5104337,
    "latitude": 35.8989731,
    "address": "대구광역시 북구 내곡로 38-2, 1동 1층 102호 (사수동)",
    "totalGameMachines": 0,
    "phone": null,
    "isOperating": true,
    "approvalDate": "2025-06-23"
  },
  {
    "id": 2008,
    "businessName": "스탑 스테이션 토이",
    "longitude": 128.7249451,
    "latitude": 35.8669811,
    "address": "대구광역시 동구 금강로 15, 1층 (신서동)",
    "totalGameMachines": 18,
    "phone": null,
    "isOperating": true,
    "approvalDate": "2025-06-11"
  },
  {
    "id": 2009,
    "businessName": "핑퐁스테이션(PINGPONG station)",
    "longitude": 128.5524297,
    "latitude": 35.8549002,
    "address": "대구광역시 달서구 달구벌대로344길 40, 1층 (두류동)",
    "totalGameMachines": 20,
    "phone": null,
    "isOperating": true,
    "approvalDate": "2025-06-10"
  },
  {
    "id": 2010,
    "businessName": "유에프오게임(UFO GAME)율하",
    "longitude": 128.6962601,
    "latitude": 35.8630368,
    "address": "대구광역시 동구 안심로22길 60-15, 광장프라자1 1층 106호 (율하동)",
    "totalGameMachines": 20,
    "phone": null,
    "isOperating": true,
    "approvalDate": "2025-05-28"
  },
  {
    "id": 2011,
    "businessName": "토이핑",
    "longitude": 128.6127685,
    "latitude": 35.8595783,
    "address": "대구광역시 수성구 달구벌대로458길 8, 1층 (수성동1가)",
    "totalGameMachines": 19,
    "phone": null,
    "isOperating": true,
    "approvalDate": "2025-05-12"
  },
  {
    "id": 2012,
    "businessName": "뽑냥",
    "longitude": 128.490878,
    "latitude": 35.8359627,
    "address": "대구광역시 달서구 성서공단로15길 12, 1층 (호림동)",
    "totalGameMachines": 13,
    "phone": null,
    "isOperating": true,
    "approvalDate": "2025-05-01"
  },
  {
    "id": 2013,
    "businessName": "땡큐게임랜드",
    "longitude": 128.5558393,
    "latitude": 35.8368033,
    "address": "대구광역시 달서구 구마로52길 9, 2층 (송현동)",
    "totalGameMachines": 60,
    "phone": null,
    "isOperating": true,
    "approvalDate": "2025-04-29"
  },
  {
    "id": 2014,
    "businessName": "챔피언오락실",
    "longitude": 128.5267907,
    "latitude": 35.8276298,
    "address": "대구광역시 달서구 조암로6길 20, 상가2동 1층 104호 (월성동, 월성푸르지오)",
    "totalGameMachines": 22,
    "phone": null,
    "isOperating": true,
    "approvalDate": "2025-04-16"
  },
  {
    "id": 2015,
    "businessName": "굿즈원 동성로점",
    "longitude": 128.5942533,
    "latitude": 35.8671307,
    "address": "대구광역시 중구 동성로1길 5, 1층 (동성로3가)",
    "totalGameMachines": 38,
    "phone": null,
    "isOperating": true,
    "approvalDate": "2025-04-15"
  },
  {
    "id": 2016,
    "businessName": "공룡게임랜드",
    "longitude": 128.7178418,
    "latitude": 35.8360355,
    "address": "대구광역시 수성구 달구벌대로 3310, 302동 202호 (신매동, 한라하우젠트)",
    "totalGameMachines": 40,
    "phone": null,
    "isOperating": true,
    "approvalDate": "2025-04-11"
  },
  {
    "id": 2017,
    "businessName": "UFO GAME 칠곡",
    "longitude": 128.5607,
    "latitude": 35.943515,
    "address": "대구광역시 북구 동천로 133, 1층 105호 (동천동)",
    "totalGameMachines": 0,
    "phone": null,
    "isOperating": true,
    "approvalDate": "2025-04-10"
  },
  {
    "id": 2018,
    "businessName": "토이즈팝 시지광장점",
    "longitude": 128.7084338,
    "latitude": 35.8399162,
    "address": "대구광역시 수성구 달구벌대로 3218, 1층 (신매동)",
    "totalGameMachines": 9,
    "phone": null,
    "isOperating": true,
    "approvalDate": "2025-03-24"
  },
  {
    "id": 2019,
    "businessName": "대박오락실",
    "longitude": 128.556618,
    "latitude": 35.8654377,
    "address": "대구광역시 서구 서대구로18길 6, 2층 (평리동)",
    "totalGameMachines": 40,
    "phone": null,
    "isOperating": true,
    "approvalDate": "2025-03-20"
  },
  {
    "id": 2020,
    "businessName": "꿀잼",
    "longitude": 128.4591263,
    "latitude": 35.6932728,
    "address": "대구광역시 달성군 유가읍 테크노상업로 100, 1층 109호",
    "totalGameMachines": 25,
    "phone": null,
    "isOperating": true,
    "approvalDate": "2025-03-20"
  },
  {
    "id": 2021,
    "businessName": "엠파게임랜드",
    "longitude": 128.6130162,
    "latitude": 35.8499461,
    "address": "대구광역시 수성구 수성로 271, 2층 (수성동1가)",
    "totalGameMachines": 50,
    "phone": null,
    "isOperating": true,
    "approvalDate": "2025-03-19"
  },
  {
    "id": 2022,
    "businessName": "윈윈게임랜드",
    "longitude": 128.5046713,
    "latitude": 35.8536684,
    "address": "대구광역시 달서구 이곡서로 21, 2층 202호 (이곡동)",
    "totalGameMachines": 40,
    "phone": null,
    "isOperating": true,
    "approvalDate": "2025-03-18"
  },
  {
    "id": 2023,
    "businessName": "금자오락실",
    "longitude": 128.5303334,
    "latitude": 35.8580803,
    "address": "대구광역시 달서구 용산로 229, 대구공영빌딩 1층 103호 (용산동)",
    "totalGameMachines": 7,
    "phone": null,
    "isOperating": true,
    "approvalDate": "2025-03-18"
  },
  {
    "id": 2024,
    "businessName": "블루버니 현풍점",
    "longitude": 128.4597889,
    "latitude": 35.6928277,
    "address": "대구광역시 달성군 유가읍 테크노상업로4길 7-4, 101호",
    "totalGameMachines": 0,
    "phone": null,
    "isOperating": true,
    "approvalDate": "2025-03-12"
  },
  {
    "id": 2025,
    "businessName": "대빵오락실 광장코아점",
    "longitude": 128.5525973,
    "latitude": 35.8550864,
    "address": "대구광역시 달서구 달구벌대로344길 34, 두류3동우체국 1층 (두류동)",
    "totalGameMachines": 40,
    "phone": null,
    "isOperating": true,
    "approvalDate": "2025-03-12"
  },
  {
    "id": 2026,
    "businessName": "챔피언 호산",
    "longitude": 128.4856238,
    "latitude": 35.8511635,
    "address": "대구광역시 달서구 호산동로 179, 1층 (호산동)",
    "totalGameMachines": 37,
    "phone": null,
    "isOperating": true,
    "approvalDate": "2025-02-26"
  },
  {
    "id": 2027,
    "businessName": "탕탕(TANG TANG)",
    "longitude": 128.6002305,
    "latitude": 35.8703847,
    "address": "대구광역시 중구 공평로 69, 1층 (공평동)",
    "totalGameMachines": 10,
    "phone": null,
    "isOperating": true,
    "approvalDate": "2025-02-21"
  },
  {
    "id": 2028,
    "businessName": "뽑기왕",
    "longitude": 128.4939746,
    "latitude": 35.8550036,
    "address": "대구광역시 달서구 서당로7길 28, 1층 (신당동)",
    "totalGameMachines": 19,
    "phone": null,
    "isOperating": true,
    "approvalDate": "2025-02-19"
  },
  {
    "id": 2029,
    "businessName": "팡야팡야",
    "longitude": 128.6388282,
    "latitude": 35.9229114,
    "address": "대구광역시 동구 팔공로51길 17, 102호 (봉무동)",
    "totalGameMachines": 20,
    "phone": null,
    "isOperating": true,
    "approvalDate": "2025-01-24"
  },
  {
    "id": 2030,
    "businessName": "게임디 중앙로 2호점",
    "longitude": 128.5953174,
    "latitude": 35.8689196,
    "address": "대구광역시 중구 동성로 24, 1층 (동성로2가)",
    "totalGameMachines": 17,
    "phone": null,
    "isOperating": true,
    "approvalDate": "2025-01-22"
  },
  {
    "id": 2031,
    "businessName": "봉봉스테이션 대곡점",
    "longitude": 128.5357326,
    "latitude": 35.8076114,
    "address": "대구광역시 달서구 도원로 24, 1층 106호 (도원동)",
    "totalGameMachines": 15,
    "phone": null,
    "isOperating": true,
    "approvalDate": "2025-01-21"
  },
  {
    "id": 2032,
    "businessName": "게임디 동성로 로데오점",
    "longitude": 128.5977219,
    "latitude": 35.8676338,
    "address": "대구광역시 중구 동성로5길 55, 1층 (삼덕동1가)",
    "totalGameMachines": 82,
    "phone": null,
    "isOperating": true,
    "approvalDate": "2025-01-17"
  },
  {
    "id": 2033,
    "businessName": "레전드 게임랜드",
    "longitude": 128.4748893,
    "latitude": 35.8742328,
    "address": "대구광역시 달성군 다사읍 세천로 119, 2층",
    "totalGameMachines": 60,
    "phone": null,
    "isOperating": true,
    "approvalDate": "2025-01-16"
  },
  {
    "id": 2034,
    "businessName": "리틀보이(Little Boy)",
    "longitude": 128.5959832,
    "latitude": 35.8690012,
    "address": "대구광역시 중구 동성로6길 10, 1층 (동성로2가)",
    "totalGameMachines": 32,
    "phone": null,
    "isOperating": true,
    "approvalDate": "2024-12-24"
  },
  {
    "id": 2035,
    "businessName": "챔피언 오락실",
    "longitude": 128.598601,
    "latitude": 35.8717065,
    "address": "대구광역시 중구 경상감영길 206, 1층 (동문동)",
    "totalGameMachines": 37,
    "phone": null,
    "isOperating": true,
    "approvalDate": "2024-12-23"
  },
  {
    "id": 2036,
    "businessName": "핑키펑키 동성로점",
    "longitude": 128.596917,
    "latitude": 35.8675327,
    "address": "대구광역시 중구 동성로5길 44, 1층 (삼덕동1가)",
    "totalGameMachines": 23,
    "phone": null,
    "isOperating": true,
    "approvalDate": "2024-12-20"
  },
  {
    "id": 2037,
    "businessName": "럭키드로우(Lucky Draw)",
    "longitude": 128.5976258,
    "latitude": 35.8717858,
    "address": "대구광역시 중구 국채보상로123길 22 (문화동)",
    "totalGameMachines": 22,
    "phone": null,
    "isOperating": true,
    "approvalDate": "2024-12-20"
  },
  {
    "id": 2038,
    "businessName": "뱅 인형카페",
    "longitude": 128.5958449,
    "latitude": 35.8706732,
    "address": "대구광역시 중구 국채보상로 596 (동성로2가)",
    "totalGameMachines": 26,
    "phone": null,
    "isOperating": true,
    "approvalDate": "2024-12-10"
  },
  {
    "id": 2039,
    "businessName": "Lucky Draw(럭키드로우)",
    "longitude": 128.4653755,
    "latitude": 35.8593265,
    "address": "대구광역시 달성군 다사읍 대실역북로1길 15-4",
    "totalGameMachines": 18,
    "phone": null,
    "isOperating": true,
    "approvalDate": "2024-12-05"
  },
  {
    "id": 2040,
    "businessName": "게임디(GAME-D)",
    "longitude": 128.5955348,
    "latitude": 35.8701536,
    "address": "대구광역시 중구 동성로 37, 1층 (동성로2가)",
    "totalGameMachines": 34,
    "phone": null,
    "isOperating": true,
    "approvalDate": "2024-12-05"
  },
  {
    "id": 2041,
    "businessName": "롯데게임랜드",
    "longitude": 128.5513916,
    "latitude": 35.8695027,
    "address": "대구광역시 서구 국채보상로 184, 3층 (중리동)",
    "totalGameMachines": 60,
    "phone": null,
    "isOperating": true,
    "approvalDate": "2024-11-28"
  },
  {
    "id": 2042,
    "businessName": "고고오락실",
    "longitude": 128.4648623,
    "latitude": 35.8591748,
    "address": "대구광역시 달성군 다사읍 달구벌대로 863, 진광타워 106,107호",
    "totalGameMachines": 24,
    "phone": null,
    "isOperating": true,
    "approvalDate": "2024-11-25"
  },
  {
    "id": 2043,
    "businessName": "토이즈 탑",
    "longitude": 128.5940225,
    "latitude": 35.8675165,
    "address": "대구광역시 중구 동성로 3, 1층 (동성로3가)",
    "totalGameMachines": 0,
    "phone": null,
    "isOperating": true,
    "approvalDate": "2024-11-22"
  },
  {
    "id": 2044,
    "businessName": "뽀바뽀바",
    "longitude": 128.4181705,
    "latitude": 35.657462,
    "address": "대구광역시 달성군 구지면 과학마을로3길 14, 301동 102-103호 (대구국가산단 반도유보라 아이비파크)",
    "totalGameMachines": 4,
    "phone": null,
    "isOperating": true,
    "approvalDate": "2024-11-13"
  },
  {
    "id": 2045,
    "businessName": "블루게임랜드",
    "longitude": 128.5304777,
    "latitude": 35.8383601,
    "address": "대구광역시 달서구 용산로 11, 4층 (본리동)",
    "totalGameMachines": 60,
    "phone": null,
    "isOperating": true,
    "approvalDate": "2024-11-12"
  },
  {
    "id": 2046,
    "businessName": "챔피언",
    "longitude": 128.4928662,
    "latitude": 35.8552417,
    "address": "대구광역시 달서구 계대동문로 6, 1층 (신당동)",
    "totalGameMachines": 36,
    "phone": null,
    "isOperating": true,
    "approvalDate": "2024-11-07"
  },
  {
    "id": 2047,
    "businessName": "봉봉스테이션 수성못점",
    "longitude": 128.6223614,
    "latitude": 35.8263714,
    "address": "대구광역시 수성구 수성못길 12, 1층 (두산동)",
    "totalGameMachines": 27,
    "phone": null,
    "isOperating": true,
    "approvalDate": "2024-11-06"
  },
  {
    "id": 2048,
    "businessName": "산호오락실",
    "longitude": 128.5546998,
    "latitude": 35.8700012,
    "address": "대구광역시 서구 서대구로 135, 1층 (평리동)",
    "totalGameMachines": 40,
    "phone": null,
    "isOperating": true,
    "approvalDate": "2024-10-23"
  },
  {
    "id": 2049,
    "businessName": "모모게임랜드",
    "longitude": 128.5635747,
    "latitude": 35.8892218,
    "address": "대구광역시 서구 팔달로 124, 지하1층 (비산동)",
    "totalGameMachines": 60,
    "phone": null,
    "isOperating": true,
    "approvalDate": "2024-10-18"
  },
  {
    "id": 2050,
    "businessName": "비타민 신천점",
    "longitude": 128.6291263,
    "latitude": 35.8743986,
    "address": "대구광역시 동구 동부로30길 29-1, 1층 (신천동)",
    "totalGameMachines": 19,
    "phone": null,
    "isOperating": true,
    "approvalDate": "2024-10-14"
  },
  {
    "id": 2051,
    "businessName": "인형뽑기 BBOB!KIBANG",
    "longitude": 128.5821932,
    "latitude": 35.8802281,
    "address": "대구광역시 북구 고성북로 3, 101동 1층 6호 (고성동2가, 고성아파트)",
    "totalGameMachines": 13,
    "phone": null,
    "isOperating": true,
    "approvalDate": "2024-10-02"
  },
  {
    "id": 2052,
    "businessName": "돌하우스 칠곡3지구점",
    "longitude": 128.5612263,
    "latitude": 35.9434107,
    "address": "대구광역시 북구 동천로 132, 강북 SKY 1층 104호 (동천동)",
    "totalGameMachines": 0,
    "phone": null,
    "isOperating": true,
    "approvalDate": "2024-09-12"
  },
  {
    "id": 2053,
    "businessName": "블루버니",
    "longitude": 128.5984177,
    "latitude": 35.8674489,
    "address": "대구광역시 중구 동성로5길 69, 1층 (삼덕동1가)",
    "totalGameMachines": 19,
    "phone": null,
    "isOperating": true,
    "approvalDate": "2024-07-19"
  },
  {
    "id": 2054,
    "businessName": "토이즈팝(Toyspop)",
    "longitude": 128.6277866,
    "latitude": 35.8762024,
    "address": "대구광역시 동구 동부로22길 9, 동대구역 아펠리체 104호 (신천동)",
    "totalGameMachines": 14,
    "phone": null,
    "isOperating": true,
    "approvalDate": "2024-07-19"
  },
  {
    "id": 2055,
    "businessName": "BBOBANG",
    "longitude": 128.4591175,
    "latitude": 35.6924778,
    "address": "대구광역시 달성군 유가읍 테크노상업로4길 14, 1층 106호",
    "totalGameMachines": 27,
    "phone": null,
    "isOperating": true,
    "approvalDate": "2024-07-19"
  },
  {
    "id": 2056,
    "businessName": "봉봉스테이션 동성로점",
    "longitude": 128.5958385,
    "latitude": 35.8710854,
    "address": "대구광역시 중구 동성로 48, 1층 (동성로2가)",
    "totalGameMachines": 36,
    "phone": null,
    "isOperating": true,
    "approvalDate": "2024-07-18"
  },
  {
    "id": 2057,
    "businessName": "유성게임랜드",
    "longitude": 128.5554868,
    "latitude": 35.8757986,
    "address": "대구광역시 서구 문화로 209, 2층 (평리동)",
    "totalGameMachines": 40,
    "phone": null,
    "isOperating": true,
    "approvalDate": "2024-07-08"
  },
  {
    "id": 2058,
    "businessName": "캐칭덕",
    "longitude": 128.5954382,
    "latitude": 35.8696725,
    "address": "대구광역시 중구 동성로 31-1, 1층 (동성로2가)",
    "totalGameMachines": 25,
    "phone": null,
    "isOperating": true,
    "approvalDate": "2024-06-27"
  },
  {
    "id": 2059,
    "businessName": "대빵오락실",
    "longitude": 128.5972583,
    "latitude": 35.8673697,
    "address": "대구광역시 중구 동성로5길 50, 1층 (삼덕동1가)",
    "totalGameMachines": 87,
    "phone": null,
    "isOperating": true,
    "approvalDate": "2024-06-12"
  },
  {
    "id": 2060,
    "businessName": "세븐 랜드",
    "longitude": 128.4148002,
    "latitude": 35.6555646,
    "address": "대구광역시 달성군 구지면 과학마을로2길 5-14, 3층",
    "totalGameMachines": 40,
    "phone": null,
    "isOperating": true,
    "approvalDate": "2024-06-12"
  },
  {
    "id": 2061,
    "businessName": "뽑기언냐(방촌)",
    "longitude": 128.6699922,
    "latitude": 35.8810876,
    "address": "대구광역시 동구 방촌로 165 (방촌동)",
    "totalGameMachines": 10,
    "phone": null,
    "isOperating": true,
    "approvalDate": "2024-05-29"
  },
  {
    "id": 2062,
    "businessName": "뽑짱",
    "longitude": 128.5163334,
    "latitude": 35.8956768,
    "address": "대구광역시 북구 한강로6길 15-1, 1층 106호 (사수동)",
    "totalGameMachines": 15,
    "phone": null,
    "isOperating": true,
    "approvalDate": "2024-05-29"
  },
  {
    "id": 2063,
    "businessName": "고고오락실 대천점",
    "longitude": 128.5166574,
    "latitude": 35.818501,
    "address": "대구광역시 달서구 조암남로32길 22, 나동 1층 (대천동)",
    "totalGameMachines": 38,
    "phone": null,
    "isOperating": true,
    "approvalDate": "2024-05-28"
  },
  {
    "id": 2064,
    "businessName": "고고오락실",
    "longitude": 128.5267907,
    "latitude": 35.8276298,
    "address": "대구광역시 달서구 조암로6길 20, 상가2동 1층 105호 (월성동, 월성푸르지오)",
    "totalGameMachines": 14,
    "phone": null,
    "isOperating": true,
    "approvalDate": "2024-05-23"
  },
  {
    "id": 2065,
    "businessName": "우리동네 뽑기샵",
    "longitude": 128.7147439,
    "latitude": 35.878082,
    "address": "대구광역시 동구 이노밸리로36길 19, 제이에프프라자 104호 (각산동)",
    "totalGameMachines": 12,
    "phone": null,
    "isOperating": true,
    "approvalDate": "2024-05-23"
  },
  {
    "id": 2066,
    "businessName": "Amazing인형뽑기",
    "longitude": 128.6458588,
    "latitude": 35.8578298,
    "address": "대구광역시 수성구 청호로96길 12, 상가동 4호 (만촌동, 동진아파트)",
    "totalGameMachines": 14,
    "phone": null,
    "isOperating": true,
    "approvalDate": "2024-05-16"
  },
  {
    "id": 2067,
    "businessName": "석경오락실",
    "longitude": 128.5686165,
    "latitude": 35.8921913,
    "address": "대구광역시 북구 노원로10길 9, 2층 (노원동3가)",
    "totalGameMachines": 0,
    "phone": null,
    "isOperating": true,
    "approvalDate": "2024-05-14"
  },
  {
    "id": 2068,
    "businessName": "봉봉스테이션",
    "longitude": 128.7074407,
    "latitude": 35.8400478,
    "address": "대구광역시 수성구 신매로19길 46, 스퀘어빌딩 1층 103호 (신매동)",
    "totalGameMachines": 34,
    "phone": null,
    "isOperating": true,
    "approvalDate": "2024-04-03"
  },
  {
    "id": 2069,
    "businessName": "대빵오락실(칠곡점)",
    "longitude": 128.560547,
    "latitude": 35.9428033,
    "address": "대구광역시 북구 동천로 125, 1층 (동천동)",
    "totalGameMachines": 56,
    "phone": null,
    "isOperating": true,
    "approvalDate": "2024-03-14"
  },
  {
    "id": 2070,
    "businessName": "대빵오락실",
    "longitude": 128.6957963,
    "latitude": 35.8630843,
    "address": "대구광역시 동구 안심로22길 60-17, 106호 (율하동)",
    "totalGameMachines": 27,
    "phone": null,
    "isOperating": true,
    "approvalDate": "2024-03-06"
  },
  {
    "id": 2071,
    "businessName": "광장게임랜드",
    "longitude": 128.7084636,
    "latitude": 35.8396881,
    "address": "대구광역시 수성구 신매로19길 8-8, 트윈빌딩 B동 3층 (신매동)",
    "totalGameMachines": 60,
    "phone": null,
    "isOperating": true,
    "approvalDate": "2024-02-29"
  },
  {
    "id": 2072,
    "businessName": "뽀바",
    "longitude": 128.4781628,
    "latitude": 35.8717426,
    "address": "대구광역시 달성군 다사읍 세천남로 32, 1층",
    "totalGameMachines": 12,
    "phone": null,
    "isOperating": true,
    "approvalDate": "2024-02-27"
  },
  {
    "id": 2073,
    "businessName": "뽀바방",
    "longitude": 128.6957963,
    "latitude": 35.8630843,
    "address": "대구광역시 동구 안심로22길 60-17, 1층 107호 (율하동)",
    "totalGameMachines": 30,
    "phone": null,
    "isOperating": true,
    "approvalDate": "2024-02-08"
  },
  {
    "id": 2074,
    "businessName": "맘편한플레이스지산점",
    "longitude": 128.6386814,
    "latitude": 35.8217763,
    "address": "대구광역시 수성구 지범로 174, 7층 (지산동)",
    "totalGameMachines": 7,
    "phone": null,
    "isOperating": true,
    "approvalDate": "2024-01-18"
  },
  {
    "id": 2075,
    "businessName": "포니랜드",
    "longitude": 128.561167,
    "latitude": 35.9430805,
    "address": "대구광역시 북구 동천로 128, 1층 102호 (동천동)",
    "totalGameMachines": 24,
    "phone": null,
    "isOperating": true,
    "approvalDate": "2023-12-26"
  },
  {
    "id": 2076,
    "businessName": "탑게임랜드",
    "longitude": 128.6183616,
    "latitude": 35.894657,
    "address": "대구광역시 북구 동북로 250-1, 1층 (복현동)",
    "totalGameMachines": 60,
    "phone": null,
    "isOperating": true,
    "approvalDate": "2023-12-12"
  },
  {
    "id": 2077,
    "businessName": "장난감이야기",
    "longitude": 128.6457253,
    "latitude": 35.8606052,
    "address": "대구광역시 수성구 만촌로 10, 1층 (만촌동)",
    "totalGameMachines": 7,
    "phone": null,
    "isOperating": true,
    "approvalDate": "2023-12-07"
  },
  {
    "id": 2078,
    "businessName": "팡팡게임장",
    "longitude": 128.5104739,
    "latitude": 35.8081458,
    "address": "대구광역시 달서구 비슬로 2694, 2층 (대곡동)",
    "totalGameMachines": 60,
    "phone": null,
    "isOperating": true,
    "approvalDate": "2023-11-03"
  },
  {
    "id": 2079,
    "businessName": "게임디(GAME D)",
    "longitude": 128.5963743,
    "latitude": 35.8681134,
    "address": "대구광역시 중구 동성로2길 45, 1층 (삼덕동1가)",
    "totalGameMachines": 100,
    "phone": null,
    "isOperating": true,
    "approvalDate": "2023-08-23"
  },
  {
    "id": 2080,
    "businessName": "화원 토이샵",
    "longitude": 128.5029272,
    "latitude": 35.8053996,
    "address": "대구광역시 달성군 화원읍 비슬로 2619, 1층",
    "totalGameMachines": 13,
    "phone": null,
    "isOperating": true,
    "approvalDate": "2023-08-10"
  },
  {
    "id": 2081,
    "businessName": "크레이지팡팡",
    "longitude": 128.5930624,
    "latitude": 35.8688786,
    "address": "대구광역시 중구 진골목길 32, 4층 (남일동)",
    "totalGameMachines": 16,
    "phone": null,
    "isOperating": true,
    "approvalDate": "2023-06-20"
  },
  {
    "id": 2082,
    "businessName": "놀자게임장",
    "longitude": 128.5944798,
    "latitude": 35.8719178,
    "address": "대구광역시 중구 중앙대로 434-4, 1층 (포정동)",
    "totalGameMachines": 21,
    "phone": null,
    "isOperating": true,
    "approvalDate": "2023-05-25"
  },
  {
    "id": 2083,
    "businessName": "오락실세븐랜드",
    "longitude": 128.6341656,
    "latitude": 35.8849865,
    "address": "대구광역시 동구 동북로 431, 1층 (효목동)",
    "totalGameMachines": 44,
    "phone": null,
    "isOperating": true,
    "approvalDate": "2023-05-08"
  },
  {
    "id": 2084,
    "businessName": "고고오락실 죽전점",
    "longitude": 128.5361485,
    "latitude": 35.8503827,
    "address": "대구광역시 달서구 달구벌대로 1545, 골든뷰 메디타워 1층 110, 111호 (죽전동)",
    "totalGameMachines": 35,
    "phone": null,
    "isOperating": true,
    "approvalDate": "2023-04-21"
  },
  {
    "id": 2085,
    "businessName": "뽑짜",
    "longitude": 128.6026688,
    "latitude": 35.921218,
    "address": "대구광역시 북구 동변로 98, 1층 (동변동)",
    "totalGameMachines": 12,
    "phone": null,
    "isOperating": true,
    "approvalDate": "2023-04-20"
  },
  {
    "id": 2086,
    "businessName": "죽전게임랜드",
    "longitude": 128.5377816,
    "latitude": 35.8529774,
    "address": "대구광역시 달서구 와룡로 226, 지하1층 (죽전동)",
    "totalGameMachines": 2,
    "phone": null,
    "isOperating": true,
    "approvalDate": "2023-04-19"
  },
  {
    "id": 2087,
    "businessName": "게임존(game zone)",
    "longitude": 128.5364365,
    "latitude": 35.8505986,
    "address": "대구광역시 달서구 달구벌대로 1551, 죽전역골든타워 8층 (죽전동)",
    "totalGameMachines": 13,
    "phone": null,
    "isOperating": true,
    "approvalDate": "2023-04-05"
  },
  {
    "id": 2088,
    "businessName": "뽑자",
    "longitude": 128.5440388,
    "latitude": 35.8619976,
    "address": "대구광역시 서구 와룡로66길 56, 2동 1층 103호 (중리동)",
    "totalGameMachines": 16,
    "phone": null,
    "isOperating": true,
    "approvalDate": "2023-02-06"
  },
  {
    "id": 2089,
    "businessName": "뽑기월드",
    "longitude": 128.5560483,
    "latitude": 35.8843856,
    "address": "대구광역시 서구 서대구로 295-6, 1층 2호 (비산동)",
    "totalGameMachines": 14,
    "phone": null,
    "isOperating": true,
    "approvalDate": "2023-01-03"
  },
  {
    "id": 2090,
    "businessName": "뽑기뽑기",
    "longitude": 128.5157904,
    "latitude": 35.8953563,
    "address": "대구광역시 북구 한강로6길 19, 대광플라자 1층 102호 (사수동)",
    "totalGameMachines": 11,
    "phone": null,
    "isOperating": true,
    "approvalDate": "2022-12-09"
  },
  {
    "id": 2091,
    "businessName": "뽑기왕",
    "longitude": 128.5431427,
    "latitude": 35.8462653,
    "address": "대구광역시 달서구 와룡로32길 103, 1층 (감삼동)",
    "totalGameMachines": 10,
    "phone": null,
    "isOperating": true,
    "approvalDate": "2022-05-19"
  },
  {
    "id": 2092,
    "businessName": "탑뽑기",
    "longitude": 128.5532858,
    "latitude": 35.8549382,
    "address": "대구광역시 달서구 야외음악당로39길 72, 1층 (두류동)",
    "totalGameMachines": 17,
    "phone": null,
    "isOperating": true,
    "approvalDate": "2022-03-18"
  },
  {
    "id": 2093,
    "businessName": "게임파크(GAME PARK)",
    "longitude": 128.5393599,
    "latitude": 35.8165047,
    "address": "대구광역시 달서구 월곡로 247, 대구상인동복합시설 3층 302호 (상인동)",
    "totalGameMachines": 19,
    "phone": null,
    "isOperating": true,
    "approvalDate": "2022-01-14"
  },
  {
    "id": 2094,
    "businessName": "월드토이",
    "longitude": 128.4587062,
    "latitude": 35.6928365,
    "address": "대구광역시 달성군 유가읍 테크노상업로4길 8-7, 대한타운 1층 109호",
    "totalGameMachines": 10,
    "phone": null,
    "isOperating": true,
    "approvalDate": "2021-10-07"
  },
  {
    "id": 2095,
    "businessName": "게임파크",
    "longitude": 128.6934492,
    "latitude": 35.8686625,
    "address": "대구광역시 동구 안심로 80, 롯데쇼핑프라자 4층 (율하동)",
    "totalGameMachines": 14,
    "phone": null,
    "isOperating": true,
    "approvalDate": "2021-08-19"
  },
  {
    "id": 2096,
    "businessName": "행복뽑기방",
    "longitude": 128.4148959,
    "latitude": 35.6557283,
    "address": "대구광역시 달성군 구지면 과학마을로2길 5-18, 1층",
    "totalGameMachines": 14,
    "phone": null,
    "isOperating": true,
    "approvalDate": "2021-07-21"
  },
  {
    "id": 2097,
    "businessName": "게임 존(GAME ZONE)",
    "longitude": 128.5954047,
    "latitude": 35.8705152,
    "address": "대구광역시 중구 동성로 39, 씨네시티한일 7층 (동성로2가)",
    "totalGameMachines": 18,
    "phone": "053-600-2103",
    "isOperating": true,
    "approvalDate": "2021-06-14"
  },
  {
    "id": 2098,
    "businessName": "양지",
    "longitude": 128.555893,
    "latitude": 35.8632416,
    "address": "대구광역시 서구 평리로 296, 1층 (내당동)",
    "totalGameMachines": 10,
    "phone": null,
    "isOperating": true,
    "approvalDate": "2021-06-07"
  },
  {
    "id": 2099,
    "businessName": "아쫀오락실",
    "longitude": 128.6394038,
    "latitude": 35.8777002,
    "address": "대구광역시 동구 효서로 12, 1층 (효목동)",
    "totalGameMachines": 10,
    "phone": null,
    "isOperating": true,
    "approvalDate": "2021-06-03"
  },
  {
    "id": 2100,
    "businessName": "뽑기뽑기",
    "longitude": 128.7265877,
    "latitude": 35.8716624,
    "address": "대구광역시 동구 안심로 389-5, 더블럭 나동 110호 (신서동)",
    "totalGameMachines": 15,
    "phone": null,
    "isOperating": true,
    "approvalDate": "2021-05-26"
  },
  {
    "id": 2101,
    "businessName": "유에프오",
    "longitude": 128.5313024,
    "latitude": 35.8583386,
    "address": "대구광역시 달서구 달구벌대로301길 187, 1층 (용산동)",
    "totalGameMachines": 22,
    "phone": null,
    "isOperating": true,
    "approvalDate": "2021-03-29"
  },
  {
    "id": 2102,
    "businessName": "우리동네놀이터",
    "longitude": 128.5904566,
    "latitude": 35.8618096,
    "address": "대구광역시 중구 명덕로35길 120, 점포1동 1호 (남산동)",
    "totalGameMachines": 7,
    "phone": null,
    "isOperating": true,
    "approvalDate": "2021-02-05"
  },
  {
    "id": 2103,
    "businessName": "유가놀이터",
    "longitude": 128.4597889,
    "latitude": 35.6928277,
    "address": "대구광역시 달성군 유가읍 테크노상업로4길 7-4, 로얄타워 1층 104호",
    "totalGameMachines": 15,
    "phone": null,
    "isOperating": true,
    "approvalDate": "2021-01-25"
  },
  {
    "id": 2104,
    "businessName": "삼성뽑기방",
    "longitude": 128.5676415,
    "latitude": 35.9506092,
    "address": "대구광역시 북구 학남로3길 24, 1층 (학정동)",
    "totalGameMachines": 0,
    "phone": null,
    "isOperating": true,
    "approvalDate": "2021-01-12"
  },
  {
    "id": 2105,
    "businessName": "뽑기달인",
    "longitude": 128.5721391,
    "latitude": 35.8425664,
    "address": "대구광역시 남구 두류공원로 54, 1층 (대명동)",
    "totalGameMachines": 10,
    "phone": null,
    "isOperating": true,
    "approvalDate": "2020-11-30"
  },
  {
    "id": 2106,
    "businessName": "광장뽑기",
    "longitude": 128.516416,
    "latitude": 35.8952572,
    "address": "대구광역시 북구 한강로6길 19-2, 광장프라자 1층 104호 (사수동)",
    "totalGameMachines": 14,
    "phone": null,
    "isOperating": true,
    "approvalDate": "2020-08-27"
  },
  {
    "id": 2107,
    "businessName": "또뽑고",
    "longitude": 128.6962071,
    "latitude": 35.8679967,
    "address": "대구광역시 동구 율하동로15길 49, 1층 (율하동)",
    "totalGameMachines": 10,
    "phone": null,
    "isOperating": true,
    "approvalDate": "2020-07-20"
  },
  {
    "id": 2108,
    "businessName": "뽑기아지트",
    "longitude": 128.5451888,
    "latitude": 35.9441706,
    "address": "대구광역시 북구 관음중앙로 115, 1층 (관음동)",
    "totalGameMachines": 9,
    "phone": null,
    "isOperating": true,
    "approvalDate": "2020-06-23"
  },
  {
    "id": 2109,
    "businessName": "뽑아씨유(CU)",
    "longitude": 128.6191566,
    "latitude": 35.8837663,
    "address": "대구광역시 동구 아양로9길 18, 1층 (신암동)",
    "totalGameMachines": 10,
    "phone": null,
    "isOperating": true,
    "approvalDate": "2020-06-12"
  },
  {
    "id": 2110,
    "businessName": "뽑고뽑고게임장",
    "longitude": 128.6179284,
    "latitude": 35.8947112,
    "address": "대구광역시 북구 경진로1길 43, 1층 (복현동)",
    "totalGameMachines": 10,
    "phone": null,
    "isOperating": true,
    "approvalDate": "2020-01-22"
  },
  {
    "id": 2111,
    "businessName": "어드벤처게임장(2관)",
    "longitude": 128.5650896,
    "latitude": 35.8533185,
    "address": "대구광역시 달서구 두류공원로 200, 씨앤우방랜드 청소년관리동(47) 2층 (두류동)",
    "totalGameMachines": 1,
    "phone": "053-620-0001",
    "isOperating": true,
    "approvalDate": "2020-01-22"
  },
  {
    "id": 2112,
    "businessName": "어드벤처게임장(3관)",
    "longitude": 128.5650896,
    "latitude": 35.8533185,
    "address": "대구광역시 달서구 두류공원로 200, 씨앤우방랜드 청소년관리동(47) 3층 (두류동)",
    "totalGameMachines": 8,
    "phone": "053-620-0001",
    "isOperating": true,
    "approvalDate": "2020-01-22"
  },
  {
    "id": 2113,
    "businessName": "어드벤처게임장(4관)",
    "longitude": 128.5650896,
    "latitude": 35.8533185,
    "address": "대구광역시 달서구 두류공원로 200, 씨앤우방랜드 청소년관리동(47) 3층 (두류동)",
    "totalGameMachines": 5,
    "phone": "053-620-0001",
    "isOperating": true,
    "approvalDate": "2020-01-22"
  },
  {
    "id": 2114,
    "businessName": "어드벤처게임장(1관)",
    "longitude": 128.5650896,
    "latitude": 35.8533185,
    "address": "대구광역시 달서구 두류공원로 200, 씨앤우방랜드 청소년관리동(47) 2층 (두류동)",
    "totalGameMachines": 2,
    "phone": "053-620-0001",
    "isOperating": true,
    "approvalDate": "2020-01-22"
  },
  {
    "id": 2115,
    "businessName": "황금뽑기역",
    "longitude": 128.6224763,
    "latitude": 35.8349657,
    "address": "대구광역시 수성구 무학로23길 104, 1층 5호 (두산동)",
    "totalGameMachines": 13,
    "phone": null,
    "isOperating": true,
    "approvalDate": "2020-01-21"
  },
  {
    "id": 2116,
    "businessName": "짱오락실",
    "longitude": 128.5987796,
    "latitude": 35.8687752,
    "address": "대구광역시 중구 동성로6길 61, 7층 (공평동)",
    "totalGameMachines": 100,
    "phone": null,
    "isOperating": true,
    "approvalDate": "2020-01-16"
  },
  {
    "id": 2117,
    "businessName": "뽑기연구소",
    "longitude": 128.548895,
    "latitude": 35.9285626,
    "address": "대구광역시 북구 태암로 8-1, 1층 (태전동)",
    "totalGameMachines": 11,
    "phone": null,
    "isOperating": true,
    "approvalDate": "2020-01-07"
  },
  {
    "id": 2118,
    "businessName": "뽑기동산",
    "longitude": 128.5571163,
    "latitude": 35.8644888,
    "address": "대구광역시 서구 국채보상로46길 69, 1층 (평리동)",
    "totalGameMachines": 10,
    "phone": null,
    "isOperating": true,
    "approvalDate": "2019-12-19"
  },
  {
    "id": 2119,
    "businessName": "광장오락실",
    "longitude": 128.5612263,
    "latitude": 35.9434107,
    "address": "대구광역시 북구 동천로 132, 강북 SKY 3층 301,302호 (동천동)",
    "totalGameMachines": 34,
    "phone": null,
    "isOperating": true,
    "approvalDate": "2019-11-22"
  },
  {
    "id": 2120,
    "businessName": "산호오락실",
    "longitude": 128.5546998,
    "latitude": 35.8700012,
    "address": "대구광역시 서구 서대구로 135, 3층 (평리동)",
    "totalGameMachines": 40,
    "phone": null,
    "isOperating": true,
    "approvalDate": "2019-10-29"
  },
  {
    "id": 2121,
    "businessName": "팡팡",
    "longitude": 128.6071123,
    "latitude": 35.8608201,
    "address": "대구광역시 중구 달구벌대로450길 28, 1층 (대봉동)",
    "totalGameMachines": 13,
    "phone": null,
    "isOperating": true,
    "approvalDate": "2019-10-25"
  },
  {
    "id": 2122,
    "businessName": "뽑기로드",
    "longitude": 128.5467714,
    "latitude": 35.8517324,
    "address": "대구광역시 달서구 달구벌대로330길 39, 1층 (감삼동)",
    "totalGameMachines": 14,
    "phone": null,
    "isOperating": true,
    "approvalDate": "2019-10-02"
  },
  {
    "id": 2123,
    "businessName": "토이조이",
    "longitude": 128.4544181,
    "latitude": 35.6931449,
    "address": "대구광역시 달성군 현풍읍 테크노상업로 52, M타워 1층 115호",
    "totalGameMachines": 13,
    "phone": null,
    "isOperating": true,
    "approvalDate": "2019-09-19"
  },
  {
    "id": 2124,
    "businessName": "달서게임랜드",
    "longitude": 128.5676766,
    "latitude": 35.8724677,
    "address": "대구광역시 서구 국채보상로 335, 4층 (비산동)",
    "totalGameMachines": 30,
    "phone": null,
    "isOperating": true,
    "approvalDate": "2019-09-06"
  },
  {
    "id": 2125,
    "businessName": "뽑기왕",
    "longitude": 128.4438617,
    "latitude": 35.7303178,
    "address": "대구광역시 달성군 논공읍 논공로9길 79-14, 1층",
    "totalGameMachines": 8,
    "phone": null,
    "isOperating": true,
    "approvalDate": "2019-08-27"
  },
  {
    "id": 2126,
    "businessName": "역전게임장",
    "longitude": 128.5546963,
    "latitude": 35.874841,
    "address": "대구광역시 서구 서대구로 187, 2층 (평리동)",
    "totalGameMachines": 40,
    "phone": null,
    "isOperating": true,
    "approvalDate": "2019-08-23"
  },
  {
    "id": 2127,
    "businessName": "오미가미오락실",
    "longitude": 128.5717576,
    "latitude": 35.8759888,
    "address": "대구광역시 서구 달서로30길 3, 1층 (비산동)",
    "totalGameMachines": 12,
    "phone": null,
    "isOperating": true,
    "approvalDate": "2019-07-15"
  },
  {
    "id": 2128,
    "businessName": "롯데 게임랜드",
    "longitude": 128.4549632,
    "latitude": 35.6932612,
    "address": "대구광역시 달성군 현풍읍 테크노상업로 62, 406,408,409호",
    "totalGameMachines": 20,
    "phone": null,
    "isOperating": true,
    "approvalDate": "2019-07-15"
  },
  {
    "id": 2129,
    "businessName": "신흥게임랜드",
    "longitude": 128.6128993,
    "latitude": 35.8487858,
    "address": "대구광역시 수성구 수성로 259, 2층 (중동)",
    "totalGameMachines": 30,
    "phone": null,
    "isOperating": true,
    "approvalDate": "2019-07-03"
  },
  {
    "id": 2130,
    "businessName": "뽑아지트",
    "longitude": 128.5567744,
    "latitude": 35.8663095,
    "address": "대구광역시 서구 국채보상로46길 49, 1층 (평리동)",
    "totalGameMachines": 11,
    "phone": null,
    "isOperating": true,
    "approvalDate": "2019-05-24"
  },
  {
    "id": 2131,
    "businessName": "뽀브소",
    "longitude": 128.5728626,
    "latitude": 35.8487238,
    "address": "대구광역시 남구 대경길 36, 1층 (대명동)",
    "totalGameMachines": 13,
    "phone": null,
    "isOperating": true,
    "approvalDate": "2019-05-09"
  },
  {
    "id": 2132,
    "businessName": "엔젤뽑기방",
    "longitude": 128.558396,
    "latitude": 35.8862764,
    "address": "대구광역시 서구 달서천로41길 37-4 (비산동)",
    "totalGameMachines": 9,
    "phone": null,
    "isOperating": true,
    "approvalDate": "2019-05-07"
  },
  {
    "id": 2133,
    "businessName": "명성뽑기방",
    "longitude": 128.7067913,
    "latitude": 35.8694898,
    "address": "대구광역시 동구 율하동로24길 42, 1층 (신기동)",
    "totalGameMachines": 10,
    "phone": null,
    "isOperating": true,
    "approvalDate": "2019-05-07"
  },
  {
    "id": 2134,
    "businessName": "뽑기오빠",
    "longitude": 128.7025531,
    "latitude": 35.8703643,
    "address": "대구광역시 동구 율하동로 120, 1층 (신기동)",
    "totalGameMachines": 22,
    "phone": null,
    "isOperating": true,
    "approvalDate": "2019-04-03"
  },
  {
    "id": 2135,
    "businessName": "포세이돈게임랜드",
    "longitude": 128.5529396,
    "latitude": 35.832846,
    "address": "대구광역시 달서구 월배로 433, 3층 (송현동)",
    "totalGameMachines": 40,
    "phone": null,
    "isOperating": true,
    "approvalDate": "2019-01-17"
  },
  {
    "id": 2136,
    "businessName": "뽑기언냐",
    "longitude": 128.6410669,
    "latitude": 35.8847229,
    "address": "대구광역시 동구 아양로50길 59, 1층 (효목동)",
    "totalGameMachines": 11,
    "phone": null,
    "isOperating": true,
    "approvalDate": "2019-01-04"
  },
  {
    "id": 2137,
    "businessName": "인형짱",
    "longitude": 128.560122,
    "latitude": 35.8675434,
    "address": "대구광역시 서구 통학로17길 33 (평리동)",
    "totalGameMachines": 14,
    "phone": null,
    "isOperating": true,
    "approvalDate": "2018-12-31"
  },
  {
    "id": 2138,
    "businessName": "놀이궁전",
    "longitude": 128.6704016,
    "latitude": 35.8758052,
    "address": "대구광역시 동구 화랑로80길 9, 301동 1층 105호 (방촌동, 우방2차강촌마을)",
    "totalGameMachines": 11,
    "phone": null,
    "isOperating": true,
    "approvalDate": "2018-12-28"
  },
  {
    "id": 2139,
    "businessName": "불로동 놀이터",
    "longitude": 128.6412464,
    "latitude": 35.9146119,
    "address": "대구광역시 동구 팔공로 176-1, 1층 (불로동)",
    "totalGameMachines": 18,
    "phone": null,
    "isOperating": true,
    "approvalDate": "2018-12-10"
  },
  {
    "id": 2140,
    "businessName": "뽀바샵",
    "longitude": 128.5832355,
    "latitude": 35.8810391,
    "address": "대구광역시 북구 고성북로 16, 1층 (고성동3가)",
    "totalGameMachines": 12,
    "phone": null,
    "isOperating": true,
    "approvalDate": "2018-12-06"
  },
  {
    "id": 2141,
    "businessName": "동대구 뽑기역",
    "longitude": 128.6286802,
    "latitude": 35.8762597,
    "address": "대구광역시 동구 동부로30길 12, 1층 (신천동)",
    "totalGameMachines": 15,
    "phone": null,
    "isOperating": true,
    "approvalDate": "2018-11-21"
  },
  {
    "id": 2142,
    "businessName": "뽑기마켓",
    "longitude": 128.5967822,
    "latitude": 35.899814,
    "address": "대구광역시 북구 연암로 176, 1층 (산격동)",
    "totalGameMachines": 9,
    "phone": null,
    "isOperating": true,
    "approvalDate": "2018-10-29"
  },
  {
    "id": 2143,
    "businessName": "뽀끼랜드",
    "longitude": 128.6076527,
    "latitude": 35.8984346,
    "address": "대구광역시 북구 산격로 98, 1층 (산격동)",
    "totalGameMachines": 15,
    "phone": null,
    "isOperating": true,
    "approvalDate": "2018-10-29"
  },
  {
    "id": 2144,
    "businessName": "뽀끼랜드",
    "longitude": 128.5680216,
    "latitude": 35.872424,
    "address": "대구광역시 서구 국채보상로 337 (비산동)",
    "totalGameMachines": 14,
    "phone": null,
    "isOperating": true,
    "approvalDate": "2018-10-29"
  },
  {
    "id": 2145,
    "businessName": "보글보글스테이션 상인점",
    "longitude": 128.5383677,
    "latitude": 35.8175972,
    "address": "대구광역시 달서구 월곡로53길 7, 1층 (상인동)",
    "totalGameMachines": 23,
    "phone": null,
    "isOperating": true,
    "approvalDate": "2018-09-21"
  },
  {
    "id": 2146,
    "businessName": "킹멀티오락실",
    "longitude": 128.5599998,
    "latitude": 35.9436042,
    "address": "대구광역시 북구 동천로 135-7, 1층 (동천동)",
    "totalGameMachines": 26,
    "phone": null,
    "isOperating": true,
    "approvalDate": "2018-09-20"
  },
  {
    "id": 2147,
    "businessName": "킹오락실",
    "longitude": 128.5954356,
    "latitude": 35.8700843,
    "address": "대구광역시 중구 동성로 35-1, 지상 1 ~ 3층 (동성로2가)",
    "totalGameMachines": 84,
    "phone": null,
    "isOperating": true,
    "approvalDate": "2018-09-07"
  },
  {
    "id": 2148,
    "businessName": "뽑기왕",
    "longitude": 128.5160197,
    "latitude": 35.8960505,
    "address": "대구광역시 북구 한강로6길 13, 밸류스퀘어 1층 111호 (사수동)",
    "totalGameMachines": 16,
    "phone": null,
    "isOperating": true,
    "approvalDate": "2018-08-10"
  },
  {
    "id": 2149,
    "businessName": "히트게임존",
    "longitude": 128.5960942,
    "latitude": 35.8680605,
    "address": "대구광역시 중구 동성로5길 25, 지상3층 (삼덕동1가)",
    "totalGameMachines": 48,
    "phone": null,
    "isOperating": true,
    "approvalDate": "2018-07-31"
  },
  {
    "id": 2150,
    "businessName": "토이팡팡",
    "longitude": 128.5798448,
    "latitude": 35.8897329,
    "address": "대구광역시 북구 침산남로7길 12, 1층 (노원동1가)",
    "totalGameMachines": 12,
    "phone": null,
    "isOperating": true,
    "approvalDate": "2018-07-19"
  },
  {
    "id": 2151,
    "businessName": "뽀바조이",
    "longitude": 128.5046713,
    "latitude": 35.8536684,
    "address": "대구광역시 달서구 이곡서로 21, 1층 111호 (이곡동)",
    "totalGameMachines": 18,
    "phone": null,
    "isOperating": true,
    "approvalDate": "2018-05-11"
  },
  {
    "id": 2152,
    "businessName": "오락카페 홈플러스대구수성점",
    "longitude": 128.6232902,
    "latitude": 35.8388598,
    "address": "대구광역시 수성구 동대구로 95, 홈플러스대구수성점동 지하1층 X8Y5호 (두산동, 수성 SK리더스뷰)",
    "totalGameMachines": 20,
    "phone": null,
    "isOperating": true,
    "approvalDate": "2018-04-27"
  },
  {
    "id": 2153,
    "businessName": "뱅게임랜드",
    "longitude": 128.6002054,
    "latitude": 35.8665581,
    "address": "대구광역시 중구 공평로 28-2, 지상1~2층 (삼덕동2가)",
    "totalGameMachines": 40,
    "phone": null,
    "isOperating": true,
    "approvalDate": "2018-04-16"
  },
  {
    "id": 2154,
    "businessName": "뽑기짱",
    "longitude": 128.4790592,
    "latitude": 35.8763508,
    "address": "대구광역시 달성군 다사읍 세천북로 17, 1층 108호",
    "totalGameMachines": 15,
    "phone": null,
    "isOperating": true,
    "approvalDate": "2018-04-06"
  },
  {
    "id": 2155,
    "businessName": "게임스포츠텍",
    "longitude": 128.7289503,
    "latitude": 35.8713275,
    "address": "대구광역시 동구 반야월로 370-6, 1층 (신서동)",
    "totalGameMachines": 20,
    "phone": null,
    "isOperating": true,
    "approvalDate": "2018-04-02"
  },
  {
    "id": 2156,
    "businessName": "아양뽑기역",
    "longitude": 128.638869,
    "latitude": 35.8921912,
    "address": "대구광역시 동구 공항로54길 60, 태왕아너스리버파크2차 상가동 1층 9호 (지저동)",
    "totalGameMachines": 18,
    "phone": null,
    "isOperating": true,
    "approvalDate": "2018-03-28"
  },
  {
    "id": 2157,
    "businessName": "신대박오락실",
    "longitude": 128.4401188,
    "latitude": 35.7822335,
    "address": "대구광역시 달성군 옥포읍 돌미상업로1길 16, 1층 100호",
    "totalGameMachines": 40,
    "phone": null,
    "isOperating": true,
    "approvalDate": "2018-01-22"
  },
  {
    "id": 2158,
    "businessName": "해피토이",
    "longitude": 128.5606293,
    "latitude": 35.9431483,
    "address": "대구광역시 북구 동천로 127, 호수빌딩 1층 102호 (동천동)",
    "totalGameMachines": 17,
    "phone": null,
    "isOperating": true,
    "approvalDate": "2017-12-29"
  },
  {
    "id": 2159,
    "businessName": "슈픽스타",
    "longitude": 128.6092386,
    "latitude": 35.8929426,
    "address": "대구광역시 북구 대학로17길 8, 1층 (산격동)",
    "totalGameMachines": 19,
    "phone": null,
    "isOperating": true,
    "approvalDate": "2017-12-28"
  },
  {
    "id": 2160,
    "businessName": "뽀바방(군위점)",
    "longitude": 128.5665328,
    "latitude": 36.2322703,
    "address": "대구광역시 군위군 군위읍 중앙길 43",
    "totalGameMachines": 8,
    "phone": null,
    "isOperating": true,
    "approvalDate": "2017-12-28"
  },
  {
    "id": 2161,
    "businessName": "펀앤펀",
    "longitude": 128.493991,
    "latitude": 35.8559514,
    "address": "대구광역시 달서구 서당로9길 29, 1층 (신당동)",
    "totalGameMachines": 15,
    "phone": null,
    "isOperating": true,
    "approvalDate": "2017-12-28"
  },
  {
    "id": 2162,
    "businessName": "모찌게임장",
    "longitude": 128.5981905,
    "latitude": 35.8680777,
    "address": "대구광역시 중구 동성로3길 62, 1층 (공평동)",
    "totalGameMachines": 36,
    "phone": null,
    "isOperating": true,
    "approvalDate": "2017-12-21"
  },
  {
    "id": 2163,
    "businessName": "수성아케이드",
    "longitude": 128.618236,
    "latitude": 35.8631628,
    "address": "대구광역시 수성구 들안로 370 (수성동4가)",
    "totalGameMachines": 21,
    "phone": null,
    "isOperating": true,
    "approvalDate": "2017-12-21"
  },
  {
    "id": 2164,
    "businessName": "뽑기 오빠",
    "longitude": 128.6110338,
    "latitude": 35.8790028,
    "address": "대구광역시 동구 신성로 37-1, 1층 (신암동)",
    "totalGameMachines": 11,
    "phone": null,
    "isOperating": true,
    "approvalDate": "2017-12-15"
  },
  {
    "id": 2165,
    "businessName": "뽑기오빠",
    "longitude": 128.5446254,
    "latitude": 35.9376426,
    "address": "대구광역시 북구 관음중앙로 42, 1층 (관음동)",
    "totalGameMachines": 14,
    "phone": null,
    "isOperating": true,
    "approvalDate": "2017-12-06"
  },
  {
    "id": 2166,
    "businessName": "큐브존 대구스타디움점",
    "longitude": 128.6867221,
    "latitude": 35.8298122,
    "address": "대구광역시 수성구 유니버시아드로 140, 지하1층층 97-1호 (대흥동)",
    "totalGameMachines": 50,
    "phone": null,
    "isOperating": true,
    "approvalDate": "2017-11-29"
  },
  {
    "id": 2167,
    "businessName": "일렉트로게임(클래스어뮤즈먼트월배점)",
    "longitude": 128.5239491,
    "latitude": 35.8171438,
    "address": "대구광역시 달서구 진천로 92, 이마트월배점 3층 (대천동)",
    "totalGameMachines": 23,
    "phone": null,
    "isOperating": true,
    "approvalDate": "2017-11-16"
  },
  {
    "id": 2168,
    "businessName": "뽑기오빠",
    "longitude": 128.5493138,
    "latitude": 35.9180388,
    "address": "대구광역시 북구 칠곡중앙대로46길 15, 상가-1동 1층 103호 (태전동, 태전동남영아파트)",
    "totalGameMachines": 9,
    "phone": null,
    "isOperating": true,
    "approvalDate": "2017-10-31"
  },
  {
    "id": 2169,
    "businessName": "뽑기방",
    "longitude": 128.5571503,
    "latitude": 35.8706327,
    "address": "대구광역시 서구 국채보상로 238 (평리동)",
    "totalGameMachines": 5,
    "phone": null,
    "isOperating": true,
    "approvalDate": "2017-09-26"
  },
  {
    "id": 2170,
    "businessName": "평광인형뽑기방",
    "longitude": 128.5464851,
    "latitude": 35.8128382,
    "address": "대구광역시 달서구 상인서로 20, 1층 (상인동)",
    "totalGameMachines": 5,
    "phone": null,
    "isOperating": true,
    "approvalDate": "2017-07-21"
  },
  {
    "id": 2171,
    "businessName": "플레이원",
    "longitude": 128.5386683,
    "latitude": 35.8168218,
    "address": "대구광역시 달서구 월곡로51길 17, 2층 201호 (상인동)",
    "totalGameMachines": 22,
    "phone": null,
    "isOperating": true,
    "approvalDate": "2017-07-13"
  },
  {
    "id": 2172,
    "businessName": "토이샵",
    "longitude": 128.6396682,
    "latitude": 35.8225016,
    "address": "대구광역시 수성구 용학로 293-12 (지산동)",
    "totalGameMachines": 29,
    "phone": null,
    "isOperating": true,
    "approvalDate": "2017-05-02"
  },
  {
    "id": 2173,
    "businessName": "금자오락실",
    "longitude": 128.5304688,
    "latitude": 35.8415984,
    "address": "대구광역시 달서구 용산로 47, 1층 (본리동)",
    "totalGameMachines": 28,
    "phone": null,
    "isOperating": true,
    "approvalDate": "2017-04-17"
  },
  {
    "id": 2174,
    "businessName": "뽑고뽑고게임장",
    "longitude": 128.6403608,
    "latitude": 35.9129351,
    "address": "대구광역시 동구 팔공로31길 3, 1층 (불로동)",
    "totalGameMachines": 14,
    "phone": null,
    "isOperating": true,
    "approvalDate": "2017-04-12"
  },
  {
    "id": 2175,
    "businessName": "놀자리듬게임장",
    "longitude": 128.5944798,
    "latitude": 35.8719178,
    "address": "대구광역시 중구 중앙대로 434-4, 4층 (포정동)",
    "totalGameMachines": 40,
    "phone": null,
    "isOperating": true,
    "approvalDate": "2017-04-03"
  },
  {
    "id": 2176,
    "businessName": "스타게임장",
    "longitude": 128.552762,
    "latitude": 35.8547965,
    "address": "대구광역시 달서구 달구벌대로344길 37, 1층 (두류동)",
    "totalGameMachines": 37,
    "phone": null,
    "isOperating": true,
    "approvalDate": "2017-03-31"
  },
  {
    "id": 2177,
    "businessName": "알쏭달쏭해뽑기방",
    "longitude": 128.5819974,
    "latitude": 35.85572,
    "address": "대구광역시 남구 명덕로22길 39 (대명동)",
    "totalGameMachines": 6,
    "phone": null,
    "isOperating": true,
    "approvalDate": "2017-03-17"
  },
  {
    "id": 2178,
    "businessName": "토이 play",
    "longitude": 128.4430325,
    "latitude": 35.7299352,
    "address": "대구광역시 달성군 논공읍 논공로5길 149, 1층",
    "totalGameMachines": 12,
    "phone": null,
    "isOperating": true,
    "approvalDate": "2017-03-10"
  },
  {
    "id": 2179,
    "businessName": "토이아지트",
    "longitude": 128.7250977,
    "latitude": 35.8674657,
    "address": "대구광역시 동구 동호로5길 29, 1층 (신서동)",
    "totalGameMachines": 22,
    "phone": null,
    "isOperating": true,
    "approvalDate": "2017-02-22"
  },
  {
    "id": 2180,
    "businessName": "인형뽑기",
    "longitude": 128.6867221,
    "latitude": 35.8298122,
    "address": "대구광역시 수성구 유니버시아드로 140, 83호 (대흥동, 대구스타디움몰)",
    "totalGameMachines": 11,
    "phone": null,
    "isOperating": true,
    "approvalDate": "2017-01-31"
  },
  {
    "id": 2181,
    "businessName": "다뽑자",
    "longitude": 128.5717326,
    "latitude": 35.8793356,
    "address": "대구광역시 서구 달서로 192, 1층 (비산동)",
    "totalGameMachines": 7,
    "phone": null,
    "isOperating": true,
    "approvalDate": "2017-01-19"
  },
  {
    "id": 2182,
    "businessName": "블랙홀인형뽑기방",
    "longitude": 128.5978826,
    "latitude": 35.8427105,
    "address": "대구광역시 남구 이천로 15, 1층 (봉덕동)",
    "totalGameMachines": 7,
    "phone": null,
    "isOperating": true,
    "approvalDate": "2017-01-19"
  },
  {
    "id": 2183,
    "businessName": "토이샵",
    "longitude": 128.4860367,
    "latitude": 35.8506931,
    "address": "대구광역시 달서구 호산동로 174-1, 1층 (호산동)",
    "totalGameMachines": 13,
    "phone": null,
    "isOperating": true,
    "approvalDate": "2017-01-18"
  },
  {
    "id": 2184,
    "businessName": "블랙홀 인형뽑기방",
    "longitude": 128.4992877,
    "latitude": 35.8069076,
    "address": "대구광역시 달성군 화원읍 화원로 29",
    "totalGameMachines": 9,
    "phone": null,
    "isOperating": true,
    "approvalDate": "2017-01-17"
  },
  {
    "id": 2185,
    "businessName": "다뽑자",
    "longitude": 128.5715134,
    "latitude": 35.8767383,
    "address": "대구광역시 서구 달서로 162 (비산동)",
    "totalGameMachines": 12,
    "phone": null,
    "isOperating": true,
    "approvalDate": "2017-01-12"
  },
  {
    "id": 2186,
    "businessName": "뽀끼뽀끼",
    "longitude": 128.5155495,
    "latitude": 35.8964267,
    "address": "대구광역시 북구 한강로6길 10, 1층 (사수동)",
    "totalGameMachines": 12,
    "phone": null,
    "isOperating": true,
    "approvalDate": "2017-01-05"
  },
  {
    "id": 2187,
    "businessName": "히트다 히트",
    "longitude": 128.6384089,
    "latitude": 35.9228476,
    "address": "대구광역시 동구 팔공로51길 21, 1층 10호 (봉무동, B동)",
    "totalGameMachines": 21,
    "phone": null,
    "isOperating": true,
    "approvalDate": "2017-01-05"
  },
  {
    "id": 2188,
    "businessName": "짱구게임장",
    "longitude": 128.5708569,
    "latitude": 35.8679604,
    "address": "대구광역시 서구 달서로 63 (비산동)",
    "totalGameMachines": 9,
    "phone": null,
    "isOperating": true,
    "approvalDate": "2017-01-05"
  },
  {
    "id": 2189,
    "businessName": "토이랜드",
    "longitude": 128.6957963,
    "latitude": 35.8630843,
    "address": "대구광역시 동구 안심로22길 60-17, 1층 (율하동)",
    "totalGameMachines": 10,
    "phone": null,
    "isOperating": true,
    "approvalDate": "2017-01-04"
  },
  {
    "id": 2190,
    "businessName": "드루와",
    "longitude": 128.615937,
    "latitude": 35.8965584,
    "address": "대구광역시 북구 동북로 222, 1층 (복현동)",
    "totalGameMachines": 11,
    "phone": null,
    "isOperating": true,
    "approvalDate": "2016-12-27"
  },
  {
    "id": 2191,
    "businessName": "뽑기오빠 오케이",
    "longitude": 128.6178098,
    "latitude": 35.8833962,
    "address": "대구광역시 동구 아양로7길 12, 1층 (신암동, 신암뜨란채)",
    "totalGameMachines": 16,
    "phone": null,
    "isOperating": true,
    "approvalDate": "2016-12-26"
  },
  {
    "id": 2192,
    "businessName": "깐부",
    "longitude": 128.5500256,
    "latitude": 35.8305805,
    "address": "대구광역시 달서구 송현동길 18, 1층 (송현동)",
    "totalGameMachines": 11,
    "phone": null,
    "isOperating": true,
    "approvalDate": "2016-12-22"
  },
  {
    "id": 2193,
    "businessName": "놀이터뽑기방",
    "longitude": 128.5512809,
    "latitude": 35.8337099,
    "address": "대구광역시 달서구 학산로 226, 1층 (송현동)",
    "totalGameMachines": 9,
    "phone": null,
    "isOperating": true,
    "approvalDate": "2016-12-21"
  },
  {
    "id": 2194,
    "businessName": "드루와",
    "longitude": 128.6028945,
    "latitude": 35.9211857,
    "address": "대구광역시 북구 동변로 96, 1층 (동변동)",
    "totalGameMachines": 8,
    "phone": null,
    "isOperating": true,
    "approvalDate": "2016-12-15"
  },
  {
    "id": 2195,
    "businessName": "더 프렌즈",
    "longitude": 128.4437695,
    "latitude": 35.7301234,
    "address": "대구광역시 달성군 논공읍 논공로5길 163, 1층",
    "totalGameMachines": 8,
    "phone": null,
    "isOperating": true,
    "approvalDate": "2016-12-08"
  },
  {
    "id": 2196,
    "businessName": "뽑스타",
    "longitude": 128.6964793,
    "latitude": 35.8635369,
    "address": "대구광역시 동구 안심로22길 46, 1층 (율하동)",
    "totalGameMachines": 15,
    "phone": null,
    "isOperating": true,
    "approvalDate": "2016-12-02"
  },
  {
    "id": 2197,
    "businessName": "모여라 뽑동산",
    "longitude": 128.6396201,
    "latitude": 35.9221211,
    "address": "대구광역시 동구 팔공로51길 15-11, 1층 107호 (봉무동)",
    "totalGameMachines": 10,
    "phone": null,
    "isOperating": true,
    "approvalDate": "2016-12-01"
  },
  {
    "id": 2198,
    "businessName": "루이",
    "longitude": 128.6360206,
    "latitude": 35.8584951,
    "address": "대구광역시 수성구 범어로 100 (범어동)",
    "totalGameMachines": 12,
    "phone": null,
    "isOperating": true,
    "approvalDate": "2016-11-25"
  },
  {
    "id": 2199,
    "businessName": "신세계게임랜드",
    "longitude": 128.6286895,
    "latitude": 35.8739687,
    "address": "대구광역시 동구 동부로28길 23, 2층 (신천동)",
    "totalGameMachines": 10,
    "phone": null,
    "isOperating": true,
    "approvalDate": "2016-11-18"
  },
  {
    "id": 2200,
    "businessName": "토이N조이",
    "longitude": 128.6501667,
    "latitude": 35.8563929,
    "address": "대구광역시 수성구 달구벌대로528길 6 (만촌동)",
    "totalGameMachines": 16,
    "phone": null,
    "isOperating": true,
    "approvalDate": "2016-11-07"
  },
  {
    "id": 2201,
    "businessName": "팡팡뽑기방",
    "longitude": 128.5357326,
    "latitude": 35.8076114,
    "address": "대구광역시 달서구 도원로 24, 지상1층 110호 (도원동)",
    "totalGameMachines": 9,
    "phone": null,
    "isOperating": true,
    "approvalDate": "2016-11-04"
  },
  {
    "id": 2203,
    "businessName": "알라딘샾",
    "longitude": 128.5715122,
    "latitude": 35.8754869,
    "address": "대구광역시 서구 달서로 148 (비산동)",
    "totalGameMachines": 11,
    "phone": null,
    "isOperating": true,
    "approvalDate": "2016-11-03"
  },
  {
    "id": 2204,
    "businessName": "인형천국",
    "longitude": 128.544075,
    "latitude": 35.9256512,
    "address": "대구광역시 북구 영송로 4, 1층 101호 (태전동)",
    "totalGameMachines": 18,
    "phone": null,
    "isOperating": true,
    "approvalDate": "2016-10-28"
  },
  {
    "id": 2205,
    "businessName": "(주)탑스코리아",
    "longitude": 128.575239,
    "latitude": 35.8378735,
    "address": "대구광역시 남구 대명로36길 38-2, 1층 (대명동)",
    "totalGameMachines": 21,
    "phone": null,
    "isOperating": true,
    "approvalDate": "2016-10-19"
  },
  {
    "id": 2206,
    "businessName": "뽀바",
    "longitude": 128.5765697,
    "latitude": 35.8397221,
    "address": "대구광역시 남구 장전1길 104-9, 1층 (대명동)",
    "totalGameMachines": 10,
    "phone": null,
    "isOperating": true,
    "approvalDate": "2016-10-13"
  },
  {
    "id": 2207,
    "businessName": "뽑아방",
    "longitude": 128.6388683,
    "latitude": 35.8227135,
    "address": "대구광역시 수성구 지범로31길 3 (지산동)",
    "totalGameMachines": 10,
    "phone": null,
    "isOperating": true,
    "approvalDate": "2016-09-23"
  },
  {
    "id": 2208,
    "businessName": "뽑트리스",
    "longitude": 128.5538755,
    "latitude": 35.8546746,
    "address": "대구광역시 달서구 야외음악당로39길 62 (두류동, 신내당시장아파트)",
    "totalGameMachines": 7,
    "phone": null,
    "isOperating": true,
    "approvalDate": "2016-09-13"
  },
  {
    "id": 2209,
    "businessName": "인형천국",
    "longitude": 128.5392149,
    "latitude": 35.8170424,
    "address": "대구광역시 달서구 월곡로 253, 지상1층 103호 (상인동)",
    "totalGameMachines": 12,
    "phone": null,
    "isOperating": true,
    "approvalDate": "2016-09-07"
  },
  {
    "id": 2210,
    "businessName": "샾(#) 인형뽑기",
    "longitude": 128.638255,
    "latitude": 35.8234163,
    "address": "대구광역시 수성구 지범로23길 35 (지산동)",
    "totalGameMachines": 13,
    "phone": null,
    "isOperating": true,
    "approvalDate": "2016-09-02"
  },
  {
    "id": 2211,
    "businessName": "토이월드",
    "longitude": 128.4655793,
    "latitude": 35.8594786,
    "address": "대구광역시 달성군 다사읍 대실역북로1길 17",
    "totalGameMachines": 12,
    "phone": null,
    "isOperating": true,
    "approvalDate": "2016-08-29"
  },
  {
    "id": 2212,
    "businessName": "샾인형뽑기",
    "longitude": 128.5626312,
    "latitude": 35.9425067,
    "address": "대구광역시 북구 동천로 128-16, 1층 (동천동)",
    "totalGameMachines": 15,
    "phone": null,
    "isOperating": true,
    "approvalDate": "2016-08-24"
  },
  {
    "id": 2213,
    "businessName": "모찌게임장",
    "longitude": 128.5530044,
    "latitude": 35.8551496,
    "address": "대구광역시 달서구 달구벌대로344길 27, 지상1층 (두류동)",
    "totalGameMachines": 20,
    "phone": null,
    "isOperating": true,
    "approvalDate": "2016-08-23"
  },
  {
    "id": 2214,
    "businessName": "로얄게임랜드",
    "longitude": 128.6340555,
    "latitude": 35.8851086,
    "address": "대구광역시 동구 동북로 429, 2층 (효목동)",
    "totalGameMachines": 40,
    "phone": null,
    "isOperating": true,
    "approvalDate": "2016-03-03"
  },
  {
    "id": 2215,
    "businessName": "매니아 게임랜드",
    "longitude": 128.4201161,
    "latitude": 35.6405146,
    "address": "대구광역시 달성군 구지면 달성2차로 141",
    "totalGameMachines": 11,
    "phone": null,
    "isOperating": true,
    "approvalDate": "2015-12-02"
  },
  {
    "id": 2216,
    "businessName": "대영오락실",
    "longitude": 128.4452595,
    "latitude": 35.7280975,
    "address": "대구광역시 달성군 논공읍 용호로1길 5, 3층",
    "totalGameMachines": 40,
    "phone": null,
    "isOperating": true,
    "approvalDate": "2015-07-17"
  },
  {
    "id": 2217,
    "businessName": "돼지오락실",
    "longitude": 128.4463782,
    "latitude": 35.7299376,
    "address": "대구광역시 달성군 논공읍 논공로 738, 2층",
    "totalGameMachines": 45,
    "phone": null,
    "isOperating": true,
    "approvalDate": "2014-04-25"
  },
  {
    "id": 2218,
    "businessName": "대박오락실",
    "longitude": 128.5465483,
    "latitude": 35.9230028,
    "address": "대구광역시 북구 칠곡중앙대로 305, 2층 (태전동)",
    "totalGameMachines": 40,
    "phone": null,
    "isOperating": true,
    "approvalDate": "2014-03-14"
  },
  {
    "id": 2219,
    "businessName": "삼성게임랜드",
    "longitude": 128.6337845,
    "latitude": 35.8846275,
    "address": "대구광역시 동구 동북로 432, 3층 (신암동)",
    "totalGameMachines": 30,
    "phone": null,
    "isOperating": true,
    "approvalDate": "2014-03-13"
  },
  {
    "id": 2220,
    "businessName": "펀엔조이",
    "longitude": 128.5604102,
    "latitude": 35.9441668,
    "address": "대구광역시 북구 동암로 90, 5층 (동천동)",
    "totalGameMachines": 31,
    "phone": null,
    "isOperating": true,
    "approvalDate": "2013-03-22"
  },
  {
    "id": 2221,
    "businessName": "짱오락실",
    "longitude": 128.5972799,
    "latitude": 35.868579,
    "address": "대구광역시 중구 동성로6길 36, 지하1층 (공평동)",
    "totalGameMachines": 78,
    "phone": null,
    "isOperating": true,
    "approvalDate": "2013-01-25"
  },
  {
    "id": 2222,
    "businessName": "제이.제이오락실",
    "longitude": 128.6176973,
    "latitude": 35.846553,
    "address": "대구광역시 수성구 희망로 172, 2층 (황금동)",
    "totalGameMachines": 40,
    "phone": null,
    "isOperating": true,
    "approvalDate": "2012-11-14"
  },
  {
    "id": 2223,
    "businessName": "후키랜드",
    "longitude": 128.6372098,
    "latitude": 35.9216211,
    "address": "대구광역시 동구 팔공로49길 16 (봉무동)",
    "totalGameMachines": 9,
    "phone": "945-2542",
    "isOperating": true,
    "approvalDate": "2012-03-13"
  },
  {
    "id": 2224,
    "businessName": "별들의전쟁",
    "longitude": 128.6504432,
    "latitude": 35.856224,
    "address": "대구광역시 수성구 달구벌대로528길 5, 지하1층 (만촌동)",
    "totalGameMachines": 24,
    "phone": null,
    "isOperating": true,
    "approvalDate": "2011-12-14"
  },
  {
    "id": 2225,
    "businessName": "스타오락실",
    "longitude": 128.7048991,
    "latitude": 35.8699433,
    "address": "대구광역시 동구 율하동로24길 23, 2층 (신기동)",
    "totalGameMachines": 40,
    "phone": null,
    "isOperating": true,
    "approvalDate": "2011-06-15"
  },
  {
    "id": 2226,
    "businessName": "계명게임장",
    "longitude": 128.4928615,
    "latitude": 35.8559677,
    "address": "대구광역시 달서구 서당로9길 49 (신당동,(1층))",
    "totalGameMachines": 4,
    "phone": "588-0071",
    "isOperating": true,
    "approvalDate": "2010-05-06"
  },
  {
    "id": 2227,
    "businessName": "주몽오락실",
    "longitude": 128.6120584,
    "latitude": 35.8344127,
    "address": "대구광역시 수성구 수성로 100 (상동)",
    "totalGameMachines": 40,
    "phone": null,
    "isOperating": true,
    "approvalDate": "2010-04-20"
  },
  {
    "id": 2228,
    "businessName": "명가오락실",
    "longitude": 128.5864383,
    "latitude": 35.8447671,
    "address": "대구광역시 남구 대명로57길 23 (대명동)",
    "totalGameMachines": 17,
    "phone": "626-0512",
    "isOperating": true,
    "approvalDate": "2010-03-31"
  },
  {
    "id": 2229,
    "businessName": "로얄게임장",
    "longitude": 128.5949061,
    "latitude": 35.8735303,
    "address": "대구광역시 중구 중앙대로 454-1, 2층 (화전동)",
    "totalGameMachines": 72,
    "phone": null,
    "isOperating": true,
    "approvalDate": "2008-06-25"
  },
  {
    "id": 2230,
    "businessName": "프린스오락실",
    "longitude": 128.544309,
    "latitude": 35.8451868,
    "address": "대구광역시 달서구 당산로 85 (감삼동,(지하1층))",
    "totalGameMachines": 40,
    "phone": "561-0577",
    "isOperating": true,
    "approvalDate": "2008-05-20"
  },
  {
    "id": 2231,
    "businessName": "(주)이월드 히말라야오락실",
    "longitude": 128.5650896,
    "latitude": 35.8533185,
    "address": "대구광역시 달서구 두류공원로 200, 1층 (두류동)",
    "totalGameMachines": 15,
    "phone": "620-0210",
    "isOperating": true,
    "approvalDate": "2008-05-15"
  },
  {
    "id": 2232,
    "businessName": "(주)이월드 피터팬오락실",
    "longitude": 128.5650896,
    "latitude": 35.8533185,
    "address": "대구광역시 달서구 두류공원로 200, 1층 (두류동)",
    "totalGameMachines": 10,
    "phone": "620-0210",
    "isOperating": true,
    "approvalDate": "2008-05-15"
  },
  {
    "id": 2233,
    "businessName": "별들의전쟁",
    "longitude": 128.6504432,
    "latitude": 35.856224,
    "address": "대구광역시 수성구 달구벌대로528길 5 (만촌동)",
    "totalGameMachines": 46,
    "phone": null,
    "isOperating": true,
    "approvalDate": "2008-04-02"
  },
  {
    "id": 2234,
    "businessName": "캠퍼스게임파크",
    "longitude": 128.5452362,
    "latitude": 35.9270396,
    "address": "대구광역시 북구 칠곡중앙대로69길 20-1, 1층 (태전동)",
    "totalGameMachines": 42,
    "phone": "321-6036",
    "isOperating": true,
    "approvalDate": "2007-11-16"
  },
  {
    "id": 2235,
    "businessName": "메트로게임랜드",
    "longitude": 128.5932213,
    "latitude": 35.8658697,
    "address": "대구광역시 중구 달구벌대로 지하 2100, 반월당역 (덕산동)",
    "totalGameMachines": 18,
    "phone": "053-427-6555",
    "isOperating": true,
    "approvalDate": "2007-05-23"
  },
  {
    "id": 6194,
    "businessName": "스타게임장",
    "longitude": 128.5619282,
    "latitude": 35.9433638,
    "address": "대구광역시 북구 동천로 130-7, 1층 (동천동)",
    "totalGameMachines": null,
    "phone": null,
    "isOperating": false,
    "approvalDate": "2025-09-02"
  },
  {
    "id": 6198,
    "businessName": "캐칭박스",
    "longitude": 128.5514037,
    "latitude": 35.854231,
    "address": "대구광역시 달서구 달구벌대로344길 68, 더영스퀘어 1층 110호 (두류동)",
    "totalGameMachines": null,
    "phone": null,
    "isOperating": false,
    "approvalDate": "2025-09-02"
  },
  {
    "id": 6217,
    "businessName": "보물섬",
    "longitude": 128.6370082,
    "latitude": 35.922926,
    "address": "대구광역시 동구 팔공로51길 33, A-107호 (봉무동)",
    "totalGameMachines": null,
    "phone": null,
    "isOperating": false,
    "approvalDate": "2025-08-29"
  },
  {
    "id": 6237,
    "businessName": "게임디 동성로 5호점",
    "longitude": 128.5952153,
    "latitude": 35.8674775,
    "address": "대구광역시 중구 동성로1길 29-23, 1층 (동성로3가)",
    "totalGameMachines": null,
    "phone": null,
    "isOperating": false,
    "approvalDate": "2025-09-05"
  },
  {
    "id": 6244,
    "businessName": "PLAY TOY(플레이 토이)",
    "longitude": 128.6277866,
    "latitude": 35.8762024,
    "address": "대구광역시 동구 동부로22길 9, 동대구역 아펠리체 102호 (신천동)",
    "totalGameMachines": null,
    "phone": null,
    "isOperating": false,
    "approvalDate": "2025-09-04"
  },
  {
    "id": 6264,
    "businessName": "릴버니",
    "longitude": 128.4549632,
    "latitude": 35.6932612,
    "address": "대구광역시 달성군 현풍읍 테크노상업로 62, 101~102호",
    "totalGameMachines": null,
    "phone": null,
    "isOperating": false,
    "approvalDate": "2025-09-12"
  },
  {
    "id": 6281,
    "businessName": "대빵 인형뽑기 동성로1호점",
    "longitude": 128.5948893,
    "latitude": 35.8683296,
    "address": "대구광역시 중구 동성로 16, 1층 (동성로2가)",
    "totalGameMachines": null,
    "phone": null,
    "isOperating": false,
    "approvalDate": "2025-09-10"
  },
  {
    "id": 6353,
    "businessName": "러키비키 대구황금역점",
    "longitude": 128.6223967,
    "latitude": 35.8406169,
    "address": "대구광역시 수성구 청수로 127, 401동 103호 (황금동, 힐스테이트 황금역리저브 1단지)",
    "totalGameMachines": null,
    "phone": null,
    "isOperating": false,
    "approvalDate": "2025-09-23"
  },
  {
    "id": 6378,
    "businessName": "스타게임장",
    "longitude": 128.5599661,
    "latitude": 35.9432305,
    "address": "대구광역시 북구 동천로 125-8, 1층 (동천동)",
    "totalGameMachines": null,
    "phone": null,
    "isOperating": false,
    "approvalDate": "2025-09-26"
  },
  {
    "id": 6379,
    "businessName": "버니하우스 대구고성",
    "longitude": 128.5835064,
    "latitude": 35.8829167,
    "address": "대구광역시 북구 고성북로 35-2, 1층 (고성동3가)",
    "totalGameMachines": null,
    "phone": null,
    "isOperating": false,
    "approvalDate": "2025-09-26"
  },
  {
    "id": 6427,
    "businessName": "뽑파민",
    "longitude": 128.6042691,
    "latitude": 35.8388386,
    "address": "대구광역시 남구 신촌길 101, 1층 (봉덕동)",
    "totalGameMachines": null,
    "phone": null,
    "isOperating": false,
    "approvalDate": "2025-09-29"
  },
  {
    "id": 6453,
    "businessName": "대빵오락실 동성로3호점",
    "longitude": 128.5963591,
    "latitude": 35.8688908,
    "address": "대구광역시 중구 동성로6길 18, 1층 (공평동)",
    "totalGameMachines": null,
    "phone": null,
    "isOperating": false,
    "approvalDate": "2025-10-01"
  },
  {
    "id": 6523,
    "businessName": "엠랜드",
    "longitude": 128.572634,
    "latitude": 35.879159,
    "address": "대구광역시 서구 북비산로 360, 4층 (비산동)",
    "totalGameMachines": null,
    "phone": null,
    "isOperating": false,
    "approvalDate": "2025-10-15"
  },
  {
    "id": 6554,
    "businessName": "펀존",
    "longitude": 128.5392149,
    "latitude": 35.8170424,
    "address": "대구광역시 달서구 월곡로 253, 1층 108,109호 (상인동)",
    "totalGameMachines": null,
    "phone": null,
    "isOperating": false,
    "approvalDate": "2025-10-24"
  },
  {
    "id": 6620,
    "businessName": "대빵인형뽑기 동성로4호점",
    "longitude": 128.5980036,
    "latitude": 35.8685828,
    "address": "대구광역시 중구 동성로6길 48, 1층 101호 (공평동)",
    "totalGameMachines": null,
    "phone": null,
    "isOperating": false,
    "approvalDate": "2025-11-06"
  },
  {
    "id": 6639,
    "businessName": "게임디 동성로6호점",
    "longitude": 128.597743,
    "latitude": 35.8681326,
    "address": "대구광역시 중구 동성로3길 59, 1층 (공평동)",
    "totalGameMachines": null,
    "phone": null,
    "isOperating": false,
    "approvalDate": "2025-11-07"
  },
  {
    "id": 6656,
    "businessName": "유에프오 게임(UFO GAME)",
    "longitude": 128.4663606,
    "latitude": 35.8583512,
    "address": "대구광역시 달성군 다사읍 대실역북로1길 5-5, 1층 105호",
    "totalGameMachines": null,
    "phone": null,
    "isOperating": false,
    "approvalDate": "2025-11-11"
  },
  {
    "id": 6680,
    "businessName": "대왕오락실 옥포점",
    "longitude": 128.4419553,
    "latitude": 35.7817784,
    "address": "대구광역시 달성군 옥포읍 돌미상업로 5, 1층 103호",
    "totalGameMachines": null,
    "phone": null,
    "isOperating": false,
    "approvalDate": "2025-11-19"
  },
  {
    "id": 6688,
    "businessName": "상상퀸오락실 이곡점",
    "longitude": 128.5078524,
    "latitude": 35.8543665,
    "address": "대구광역시 달서구 성서로 414, 성서롯데시네마 1층 110호 (이곡동)",
    "totalGameMachines": null,
    "phone": null,
    "isOperating": false,
    "approvalDate": "2025-11-18"
  },
  {
    "id": 6689,
    "businessName": "상상퀸오락실 상인점",
    "longitude": 128.5392149,
    "latitude": 35.8170424,
    "address": "대구광역시 달서구 월곡로 253, 1층 101호 (상인동)",
    "totalGameMachines": null,
    "phone": null,
    "isOperating": false,
    "approvalDate": "2025-11-18"
  },
  {
    "id": 6695,
    "businessName": "팡야팡야",
    "longitude": 128.5989801,
    "latitude": 35.9211891,
    "address": "대구광역시 북구 호국로 219, 대성골든프라자1차 118호 (서변동)",
    "totalGameMachines": null,
    "phone": null,
    "isOperating": false,
    "approvalDate": "2025-11-18"
  },
  {
    "id": 6696,
    "businessName": "알라딘",
    "longitude": 128.5456973,
    "latitude": 35.9202935,
    "address": "대구광역시 북구 태전로 1, 101동 103호 (태전동, 태전역 더 뉴클래스)",
    "totalGameMachines": null,
    "phone": null,
    "isOperating": false,
    "approvalDate": "2025-11-18"
  },
  {
    "id": 6697,
    "businessName": "토이즈팝",
    "longitude": 128.6380421,
    "latitude": 35.9228513,
    "address": "대구광역시 동구 팔공로51길 23, A동 1층 A-05호 (봉무동)",
    "totalGameMachines": null,
    "phone": null,
    "isOperating": false,
    "approvalDate": "2025-11-18"
  },
  {
    "id": 6712,
    "businessName": "보물섬",
    "longitude": 128.4669439,
    "latitude": 35.8578378,
    "address": "대구광역시 달성군 다사읍 대실역북로 8",
    "totalGameMachines": null,
    "phone": null,
    "isOperating": false,
    "approvalDate": "2025-11-14"
  },
  {
    "id": 6789,
    "businessName": "오로라랜드 성서점",
    "longitude": 128.4936523,
    "latitude": 35.8550062,
    "address": "대구광역시 달서구 서당로7길 36, 1층 (신당동)",
    "totalGameMachines": null,
    "phone": null,
    "isOperating": false,
    "approvalDate": "2025-12-01"
  },
  {
    "id": 6806,
    "businessName": "꿀잼오락실",
    "longitude": 128.5627445,
    "latitude": 35.9431831,
    "address": "대구광역시 북구 동천로 138-24, 1층 (동천동)",
    "totalGameMachines": null,
    "phone": null,
    "isOperating": false,
    "approvalDate": "2025-12-05"
  },
  {
    "id": 6808,
    "businessName": "보물섬",
    "longitude": 128.4792042,
    "latitude": 35.8758685,
    "address": "대구광역시 달성군 다사읍 세천북로 11, 3호",
    "totalGameMachines": null,
    "phone": null,
    "isOperating": false,
    "approvalDate": "2025-12-05"
  },
  {
    "id": 6813,
    "businessName": "퀸오락실 시지점",
    "longitude": 128.707413,
    "latitude": 35.8394446,
    "address": "대구광역시 수성구 신매로19길 23-5, 1층 (신매동)",
    "totalGameMachines": null,
    "phone": null,
    "isOperating": false,
    "approvalDate": "2025-12-04"
  },
  {
    "id": 6826,
    "businessName": "토이즈팝 동성로 3호점",
    "longitude": 128.5951468,
    "latitude": 35.8681132,
    "address": "대구광역시 중구 동성로5길 7, 1층 (동성로2가)",
    "totalGameMachines": null,
    "phone": null,
    "isOperating": false,
    "approvalDate": "2025-12-04"
  },
  {
    "id": 6831,
    "businessName": "캐칭덕 동성로 2호점",
    "longitude": 128.5977774,
    "latitude": 35.8685541,
    "address": "대구광역시 중구 동성로6길 44, 1층 (공평동)",
    "totalGameMachines": null,
    "phone": null,
    "isOperating": false,
    "approvalDate": "2025-12-03"
  },
  {
    "id": 6880,
    "businessName": "짱오락실 대구 태왕스파크 3호점",
    "longitude": 128.5987796,
    "latitude": 35.8687752,
    "address": "대구광역시 중구 동성로6길 61, 1층 (공평동)",
    "totalGameMachines": null,
    "phone": "02-333-8334",
    "isOperating": false,
    "approvalDate": "2025-12-12"
  },
  {
    "id": 6890,
    "businessName": "챔피언 서재",
    "longitude": 128.4973937,
    "latitude": 35.8754428,
    "address": "대구광역시 달성군 다사읍 서재로 135, 1층 102호",
    "totalGameMachines": null,
    "phone": null,
    "isOperating": false,
    "approvalDate": "2025-12-11"
  },
  {
    "id": 6904,
    "businessName": "더킹오락실 호산점",
    "longitude": 128.4856187,
    "latitude": 35.8516078,
    "address": "대구광역시 달서구 호산동로 185, 1층 (호산동)",
    "totalGameMachines": null,
    "phone": null,
    "isOperating": false,
    "approvalDate": "2025-12-15"
  }
]