[
  {
    "id": 4706,
    "businessName": "게임존",
    "longitude": 127.317787,
    "latitude": 36.6192976,
    "address": "충청북도 청주시 흥덕구 오송읍 봉산2길 16, 110호",
    "totalGameMachines": 0,
    "phone": null,
    "isOperating": true,
    "approvalDate": "2025-08-27"
  },
  {
    "id": 4707,
    "businessName": "왕오락실 진천혁신도시점",
    "longitude": 127.5346405,
    "latitude": 36.904186,
    "address": "충청북도 진천군 덕산읍 자안로 9, 삼영프라자 1동 1층 109,110호",
    "totalGameMachines": 0,
    "phone": null,
    "isOperating": true,
    "approvalDate": "2025-08-27"
  },
  {
    "id": 4708,
    "businessName": "CUBO 동남지구점",
    "longitude": 127.5165624,
    "latitude": 36.616788,
    "address": "충청북도 청주시 상당구 중고개로141번길 13-2, 펜타스퀘어 1층 111,112호 (용암동)",
    "totalGameMachines": 25,
    "phone": null,
    "isOperating": true,
    "approvalDate": "2025-08-26"
  },
  {
    "id": 4709,
    "businessName": "BONG BONG STATION 금천광장점",
    "longitude": 127.5050351,
    "latitude": 36.6313982,
    "address": "충청북도 청주시 상당구 산성로98번길 23, 1층 104호 (용담동)",
    "totalGameMachines": 0,
    "phone": null,
    "isOperating": true,
    "approvalDate": "2025-08-18"
  },
  {
    "id": 4710,
    "businessName": "봉봉스테이션 강서점",
    "longitude": 127.4293158,
    "latitude": 36.6245341,
    "address": "충청북도 청주시 흥덕구 서현동로 25, 1층 105호 (강서동)",
    "totalGameMachines": 28,
    "phone": null,
    "isOperating": true,
    "approvalDate": "2025-08-13"
  },
  {
    "id": 4711,
    "businessName": "더 플레이",
    "longitude": 127.9324321,
    "latitude": 36.9713856,
    "address": "충청북도 충주시 성서8길 21, 1층 (성서동)",
    "totalGameMachines": 48,
    "phone": null,
    "isOperating": true,
    "approvalDate": "2025-08-13"
  },
  {
    "id": 4712,
    "businessName": "봉봉스테이션 충주기업도시",
    "longitude": 127.8249103,
    "latitude": 37.0169842,
    "address": "충청북도 충주시 중앙탑면 원앙길 8-7",
    "totalGameMachines": 33,
    "phone": null,
    "isOperating": true,
    "approvalDate": "2025-08-06"
  },
  {
    "id": 4713,
    "businessName": "Smart PangPang",
    "longitude": 127.5171966,
    "latitude": 36.6159538,
    "address": "충청북도 청주시 상당구 중고개로141번길 13-20, 허브프라자 1층 106,107호 (용암동)",
    "totalGameMachines": 18,
    "phone": null,
    "isOperating": true,
    "approvalDate": "2025-08-01"
  },
  {
    "id": 4714,
    "businessName": "왕 오락실",
    "longitude": 127.4958956,
    "latitude": 36.665758,
    "address": "충청북도 청주시 청원구 율량로190번길 53, 104,105,106호 (율량동)",
    "totalGameMachines": 57,
    "phone": null,
    "isOperating": true,
    "approvalDate": "2025-07-15"
  },
  {
    "id": 4715,
    "businessName": "동네오락실",
    "longitude": 127.9300919,
    "latitude": 36.9876923,
    "address": "충청북도 충주시 연수상가길 30, 소망빌딩 1층 102호 (연수동)",
    "totalGameMachines": 0,
    "phone": null,
    "isOperating": true,
    "approvalDate": "2025-07-11"
  },
  {
    "id": 4716,
    "businessName": "본플레이존",
    "longitude": 127.9226336,
    "latitude": 36.9867553,
    "address": "충청북도 충주시 칠금15길 21, 1층 (칠금동)",
    "totalGameMachines": 0,
    "phone": null,
    "isOperating": true,
    "approvalDate": "2025-07-08"
  },
  {
    "id": 4717,
    "businessName": "팡팡사격뽑기",
    "longitude": 127.4295289,
    "latitude": 36.623813,
    "address": "충청북도 청주시 흥덕구 서현동로 17, 자연빌딩 106호 (강서동)",
    "totalGameMachines": 11,
    "phone": null,
    "isOperating": true,
    "approvalDate": "2025-07-04"
  },
  {
    "id": 4718,
    "businessName": "팡팡랜드",
    "longitude": 127.4282245,
    "latitude": 36.6259994,
    "address": "충청북도 청주시 흥덕구 가로수로1164번길 41-29, 101호 (강서동)",
    "totalGameMachines": 0,
    "phone": null,
    "isOperating": true,
    "approvalDate": "2025-07-04"
  },
  {
    "id": 4719,
    "businessName": "POP POP",
    "longitude": 127.4293337,
    "latitude": 36.6264678,
    "address": "충청북도 청주시 흥덕구 2순환로 1228, 111호 (강서동)",
    "totalGameMachines": 0,
    "phone": null,
    "isOperating": true,
    "approvalDate": "2025-06-27"
  },
  {
    "id": 4720,
    "businessName": "(주)액션플레이존",
    "longitude": 127.430721,
    "latitude": 36.6270005,
    "address": "충청북도 청주시 흥덕구 2순환로 1225, 청주센트럴시티(터미널복합) 426호 (가경동)",
    "totalGameMachines": 53,
    "phone": null,
    "isOperating": true,
    "approvalDate": "2025-06-23"
  },
  {
    "id": 4721,
    "businessName": "키치캐치 청주오송점",
    "longitude": 127.3175992,
    "latitude": 36.6185527,
    "address": "충청북도 청주시 흥덕구 오송읍 오송생명8로 169, 109호",
    "totalGameMachines": 11,
    "phone": null,
    "isOperating": true,
    "approvalDate": "2025-06-23"
  },
  {
    "id": 4722,
    "businessName": "THE PLAY",
    "longitude": 127.9398166,
    "latitude": 36.984596,
    "address": "충청북도 충주시 갱고개로 154, 1층 (연수동)",
    "totalGameMachines": 39,
    "phone": null,
    "isOperating": true,
    "approvalDate": "2025-06-19"
  },
  {
    "id": 4723,
    "businessName": "인형뽑기방2",
    "longitude": 127.8253884,
    "latitude": 37.0166456,
    "address": "충청북도 충주시 중앙탑면 원앙길 8-13, 1층 101호 102호",
    "totalGameMachines": 16,
    "phone": null,
    "isOperating": true,
    "approvalDate": "2025-06-02"
  },
  {
    "id": 4724,
    "businessName": "레인보우 게임랜드",
    "longitude": 127.4600019,
    "latitude": 36.6346811,
    "address": "충청북도 청주시 서원구 사직대로 112, 101호 (사창동)",
    "totalGameMachines": 31,
    "phone": null,
    "isOperating": true,
    "approvalDate": "2025-05-29"
  },
  {
    "id": 4725,
    "businessName": "인형뽑기방",
    "longitude": 127.5104654,
    "latitude": 36.6027362,
    "address": "충청북도 청주시 상당구 동남로41번길 10, 1층 107호 (방서동)",
    "totalGameMachines": 15,
    "phone": null,
    "isOperating": true,
    "approvalDate": "2025-05-08"
  },
  {
    "id": 4726,
    "businessName": "지구오락실",
    "longitude": 127.4734945,
    "latitude": 36.6626941,
    "address": "충청북도 청주시 청원구 율봉로 22, 1층 (사천동)",
    "totalGameMachines": 0,
    "phone": null,
    "isOperating": true,
    "approvalDate": "2025-05-02"
  },
  {
    "id": 4727,
    "businessName": "레인보우 뽑기샵",
    "longitude": 127.5351413,
    "latitude": 36.9038388,
    "address": "충청북도 진천군 덕산읍 대하로 147, 105호",
    "totalGameMachines": 20,
    "phone": null,
    "isOperating": true,
    "approvalDate": "2025-05-02"
  },
  {
    "id": 4728,
    "businessName": "뿜뿜오락실",
    "longitude": 127.9350547,
    "latitude": 36.9558346,
    "address": "충청북도 충주시 호암토성2로 7, 1층 108호 (호암동)",
    "totalGameMachines": 25,
    "phone": null,
    "isOperating": true,
    "approvalDate": "2025-05-01"
  },
  {
    "id": 4729,
    "businessName": "스카이박스",
    "longitude": 127.4890515,
    "latitude": 36.6346737,
    "address": "충청북도 청주시 상당구 성안로 26, 1층 (북문로1가)",
    "totalGameMachines": 23,
    "phone": null,
    "isOperating": true,
    "approvalDate": "2025-04-21"
  },
  {
    "id": 4730,
    "businessName": "봉봉스테이션",
    "longitude": 127.4288627,
    "latitude": 36.7162672,
    "address": "충청북도 청주시 청원구 오창읍 중심상업로 61, 103-B호",
    "totalGameMachines": 41,
    "phone": null,
    "isOperating": true,
    "approvalDate": "2025-04-16"
  },
  {
    "id": 4731,
    "businessName": "WONDER LAND",
    "longitude": 127.5689502,
    "latitude": 36.3014113,
    "address": "충청북도 옥천군 옥천읍 중앙로 45, 빵집",
    "totalGameMachines": 24,
    "phone": null,
    "isOperating": true,
    "approvalDate": "2025-03-31"
  },
  {
    "id": 4732,
    "businessName": "왕오락실",
    "longitude": 127.5170552,
    "latitude": 36.6170313,
    "address": "충청북도 청주시 상당구 중고개로141번길 11-1, 1층 (용암동)",
    "totalGameMachines": 55,
    "phone": null,
    "isOperating": true,
    "approvalDate": "2025-03-21"
  },
  {
    "id": 4733,
    "businessName": "오키도키(Okey Dokey)",
    "longitude": 128.2113781,
    "latitude": 37.1380666,
    "address": "충청북도 제천시 풍양로13길 10 (중앙로1가)",
    "totalGameMachines": 12,
    "phone": null,
    "isOperating": true,
    "approvalDate": "2025-03-11"
  },
  {
    "id": 4734,
    "businessName": "주식회사 사람사랑 레인보우캐슬",
    "longitude": 127.4580492,
    "latitude": 36.6331925,
    "address": "충청북도 청주시 서원구 1순환로672번길 36, 1층 (사창동)",
    "totalGameMachines": 0,
    "phone": null,
    "isOperating": true,
    "approvalDate": "2025-03-10"
  },
  {
    "id": 4736,
    "businessName": "경옥 인형뽑기방",
    "longitude": 127.8192523,
    "latitude": 37.004361,
    "address": "충청북도 충주시 주덕읍 화개1길 16, 220동 218호 (서충주신도시 삼일파라뷰 그랜드)",
    "totalGameMachines": 9,
    "phone": null,
    "isOperating": true,
    "approvalDate": "2025-03-06"
  },
  {
    "id": 4737,
    "businessName": "스위트하우스",
    "longitude": 127.4888869,
    "latitude": 36.6360669,
    "address": "충청북도 청주시 상당구 성안로 10, 1층 (북문로1가)",
    "totalGameMachines": 43,
    "phone": null,
    "isOperating": true,
    "approvalDate": "2025-03-05"
  },
  {
    "id": 4738,
    "businessName": "봉봉스테이션",
    "longitude": 127.4888949,
    "latitude": 36.649659,
    "address": "충청북도 청주시 청원구 상당로 239, 1층 (우암동)",
    "totalGameMachines": 0,
    "phone": null,
    "isOperating": true,
    "approvalDate": "2025-02-27"
  },
  {
    "id": 4739,
    "businessName": "가족오락관",
    "longitude": 127.9242526,
    "latitude": 36.9555661,
    "address": "충청북도 충주시 호암수청1로 29 (호암동, 힐스테이트 호암)",
    "totalGameMachines": 19,
    "phone": null,
    "isOperating": true,
    "approvalDate": "2025-02-21"
  },
  {
    "id": 4740,
    "businessName": "프렌즈팝",
    "longitude": 127.4889666,
    "latitude": 36.6368442,
    "address": "충청북도 청주시 상당구 사직대로 374, 1층 (북문로1가)",
    "totalGameMachines": 18,
    "phone": null,
    "isOperating": true,
    "approvalDate": "2025-02-18"
  },
  {
    "id": 4741,
    "businessName": "제천오락실",
    "longitude": 128.2120784,
    "latitude": 37.1474383,
    "address": "충청북도 제천시 내제로 237 (청전동)",
    "totalGameMachines": 21,
    "phone": null,
    "isOperating": true,
    "approvalDate": "2025-01-20"
  },
  {
    "id": 4742,
    "businessName": "인형 ZONE",
    "longitude": 127.457025,
    "latitude": 36.6328192,
    "address": "충청북도 청주시 서원구 내수동로102번길 34, 102호 (사창동)",
    "totalGameMachines": 12,
    "phone": null,
    "isOperating": true,
    "approvalDate": "2025-01-09"
  },
  {
    "id": 4743,
    "businessName": "블링팝 청주동남점",
    "longitude": 127.5170552,
    "latitude": 36.6170313,
    "address": "충청북도 청주시 상당구 중고개로141번길 11-1, 104호 (용암동)",
    "totalGameMachines": 21,
    "phone": null,
    "isOperating": true,
    "approvalDate": "2025-01-03"
  },
  {
    "id": 4744,
    "businessName": "(주)티오피글로벌",
    "longitude": 127.4903058,
    "latitude": 36.6560011,
    "address": "충청북도 청주시 청원구 상당로 314, 문화제조창 청주시청제2임시청사 1층 (내덕동)",
    "totalGameMachines": 25,
    "phone": null,
    "isOperating": true,
    "approvalDate": "2024-12-31"
  },
  {
    "id": 4745,
    "businessName": "지구오락실(충주점)",
    "longitude": 127.940608,
    "latitude": 36.9845923,
    "address": "충청북도 충주시 연수동산로6길 15, 1층 (연수동)",
    "totalGameMachines": 28,
    "phone": null,
    "isOperating": true,
    "approvalDate": "2024-12-27"
  },
  {
    "id": 4746,
    "businessName": "Mini Doll",
    "longitude": 127.4892968,
    "latitude": 36.6354394,
    "address": "충청북도 청주시 상당구 성안로 15, 1층 (북문로1가)",
    "totalGameMachines": 51,
    "phone": null,
    "isOperating": true,
    "approvalDate": "2024-12-19"
  },
  {
    "id": 4747,
    "businessName": "HUNTER DOG 동남지구점",
    "longitude": 127.5180059,
    "latitude": 36.6163538,
    "address": "충청북도 청주시 상당구 중고개로141번길 11-17, 청주동남 지음프라자 1층 114호 (용암동)",
    "totalGameMachines": 7,
    "phone": null,
    "isOperating": true,
    "approvalDate": "2024-11-01"
  },
  {
    "id": 4748,
    "businessName": "어흥어흥 제천청전점",
    "longitude": 128.2119189,
    "latitude": 37.1470362,
    "address": "충청북도 제천시 내제로 234, 1층 (청전동)",
    "totalGameMachines": 9,
    "phone": null,
    "isOperating": true,
    "approvalDate": "2024-10-08"
  },
  {
    "id": 4749,
    "businessName": "오락킹",
    "longitude": 127.4292525,
    "latitude": 36.6430542,
    "address": "충청북도 청주시 흥덕구 대농로 47-1, 3층 301호 (복대동)",
    "totalGameMachines": 0,
    "phone": null,
    "isOperating": true,
    "approvalDate": "2024-09-19"
  },
  {
    "id": 4750,
    "businessName": "테크노 오락실",
    "longitude": 127.4520468,
    "latitude": 36.6662424,
    "address": "충청북도 청주시 흥덕구 송화로166번길 9, 105호 (송절동)",
    "totalGameMachines": 0,
    "phone": null,
    "isOperating": true,
    "approvalDate": "2024-09-06"
  },
  {
    "id": 4751,
    "businessName": "(주)사람사랑 펀펀오락실",
    "longitude": 127.4958956,
    "latitude": 36.665758,
    "address": "충청북도 청주시 청원구 율량로190번길 53, 1층 119호 (율량동)",
    "totalGameMachines": 12,
    "phone": null,
    "isOperating": true,
    "approvalDate": "2024-08-23"
  },
  {
    "id": 4752,
    "businessName": "#뽑기",
    "longitude": 127.4295977,
    "latitude": 36.6236764,
    "address": "충청북도 청주시 흥덕구 서현동로 17, 자연빌딩 101호 (강서동)",
    "totalGameMachines": 9,
    "phone": null,
    "isOperating": true,
    "approvalDate": "2024-08-16"
  },
  {
    "id": 4753,
    "businessName": "탱크오락실",
    "longitude": 127.5164395,
    "latitude": 36.6157514,
    "address": "충청북도 청주시 상당구 중고개로141번길 13-16, 119,120호 (용암동)",
    "totalGameMachines": 0,
    "phone": null,
    "isOperating": true,
    "approvalDate": "2024-08-14"
  },
  {
    "id": 4754,
    "businessName": "봉봉스테이션",
    "longitude": 127.5173366,
    "latitude": 36.6165967,
    "address": "충청북도 청주시 상당구 중고개로141번길 11-6, 113,114호 (용암동)",
    "totalGameMachines": 0,
    "phone": null,
    "isOperating": true,
    "approvalDate": "2024-08-13"
  },
  {
    "id": 4755,
    "businessName": "왕오락실 제천점",
    "longitude": 128.2241925,
    "latitude": 37.1581933,
    "address": "충청북도 제천시 죽하로11안길 24, 1층 (장락동)",
    "totalGameMachines": 46,
    "phone": null,
    "isOperating": true,
    "approvalDate": "2024-08-09"
  },
  {
    "id": 4756,
    "businessName": "크랩킹(grabking)",
    "longitude": 127.5821874,
    "latitude": 36.7845464,
    "address": "충청북도 증평군 증평읍 중앙로8길 3, 102호",
    "totalGameMachines": 14,
    "phone": null,
    "isOperating": true,
    "approvalDate": "2024-07-22"
  },
  {
    "id": 4757,
    "businessName": "그랩 킹",
    "longitude": 127.427727,
    "latitude": 36.7113981,
    "address": "충청북도 청주시 청원구 오창읍 오창대로 315, 지하1층 B101호",
    "totalGameMachines": 24,
    "phone": null,
    "isOperating": true,
    "approvalDate": "2024-06-24"
  },
  {
    "id": 4758,
    "businessName": "I ZONE",
    "longitude": 127.7775268,
    "latitude": 36.1749412,
    "address": "충청북도 영동군 영동읍 중앙로3길 3, 1층",
    "totalGameMachines": 18,
    "phone": null,
    "isOperating": true,
    "approvalDate": "2024-02-08"
  },
  {
    "id": 4759,
    "businessName": "빵빵오락실",
    "longitude": 127.4670172,
    "latitude": 36.6118141,
    "address": "충청북도 청주시 서원구 산남로62번길 15, 두꺼비빌딩 111호 (산남동)",
    "totalGameMachines": 12,
    "phone": null,
    "isOperating": true,
    "approvalDate": "2024-01-29"
  },
  {
    "id": 4760,
    "businessName": "뽑아JOY",
    "longitude": 127.5695086,
    "latitude": 36.3016124,
    "address": "충청북도 옥천군 옥천읍 중앙로 50-1, 1층",
    "totalGameMachines": 6,
    "phone": null,
    "isOperating": true,
    "approvalDate": "2024-01-08"
  },
  {
    "id": 4761,
    "businessName": "스타오락실",
    "longitude": 127.5036098,
    "latitude": 36.6095757,
    "address": "충청북도 청주시 상당구 1순환로1253번길 48, 1층 (용암동)",
    "totalGameMachines": 20,
    "phone": null,
    "isOperating": true,
    "approvalDate": "2023-12-22"
  },
  {
    "id": 4762,
    "businessName": "인형뽑기#",
    "longitude": 127.4520468,
    "latitude": 36.6662424,
    "address": "충청북도 청주시 흥덕구 송화로166번길 9, 1층 103호 (송절동)",
    "totalGameMachines": 12,
    "phone": null,
    "isOperating": true,
    "approvalDate": "2023-11-08"
  },
  {
    "id": 4763,
    "businessName": "빵빵오락실",
    "longitude": 127.4596232,
    "latitude": 36.6500763,
    "address": "충청북도 청주시 흥덕구 덕암로114번길 56, 1층 102호 (봉명동)",
    "totalGameMachines": 13,
    "phone": null,
    "isOperating": true,
    "approvalDate": "2023-10-12"
  },
  {
    "id": 4764,
    "businessName": "뽑기사관학교",
    "longitude": 127.4458273,
    "latitude": 36.6144409,
    "address": "충청북도 청주시 서원구 성화로 102-1, 101호 (성화동)",
    "totalGameMachines": 10,
    "phone": null,
    "isOperating": true,
    "approvalDate": "2023-09-08"
  },
  {
    "id": 4765,
    "businessName": "굿니스G-Sports",
    "longitude": 128.3697365,
    "latitude": 36.9859321,
    "address": "충청북도 단양군 단양읍 삼봉로 328",
    "totalGameMachines": 26,
    "phone": null,
    "isOperating": true,
    "approvalDate": "2023-08-11"
  },
  {
    "id": 4766,
    "businessName": "락게임장",
    "longitude": 127.8218737,
    "latitude": 36.5314307,
    "address": "충청북도 보은군 속리산면 법주사로 266-1",
    "totalGameMachines": 8,
    "phone": null,
    "isOperating": true,
    "approvalDate": "2023-05-09"
  },
  {
    "id": 4767,
    "businessName": "Hongdae Studio",
    "longitude": 128.2114762,
    "latitude": 37.1382002,
    "address": "충청북도 제천시 풍양로13길 12 (중앙로1가)",
    "totalGameMachines": 7,
    "phone": null,
    "isOperating": true,
    "approvalDate": "2023-05-04"
  },
  {
    "id": 4768,
    "businessName": "해피플레이스 다락방",
    "longitude": 128.0459666,
    "latitude": 37.1590696,
    "address": "충청북도 제천시 백운면 금봉로 365, 클럽하우스동 3층",
    "totalGameMachines": 0,
    "phone": null,
    "isOperating": true,
    "approvalDate": "2023-04-24"
  },
  {
    "id": 4769,
    "businessName": "빵빵 오락실",
    "longitude": 127.4329882,
    "latitude": 36.6394769,
    "address": "충청북도 청주시 흥덕구 대신로73번길 41, 101호,102호 (복대동)",
    "totalGameMachines": 33,
    "phone": null,
    "isOperating": true,
    "approvalDate": "2023-03-23"
  },
  {
    "id": 4770,
    "businessName": "봉봉이 놀이터",
    "longitude": 127.4218852,
    "latitude": 36.6304304,
    "address": "충청북도 청주시 흥덕구 가로수로1131번길 106, 102호 (비하동)",
    "totalGameMachines": 12,
    "phone": null,
    "isOperating": true,
    "approvalDate": "2023-02-28"
  },
  {
    "id": 4771,
    "businessName": "게임존",
    "longitude": 128.177564,
    "latitude": 37.0167407,
    "address": "충청북도 제천시 청풍면 청풍호로 1798, 청풍 레이크 호텔",
    "totalGameMachines": 5,
    "phone": "043-640-7048",
    "isOperating": true,
    "approvalDate": "2023-01-18"
  },
  {
    "id": 4772,
    "businessName": "THE뽑기",
    "longitude": 127.5844829,
    "latitude": 36.9898436,
    "address": "충청북도 음성군 금왕읍 탑골길 12, 1층 102호 (음성두진백로아파트)",
    "totalGameMachines": 8,
    "phone": null,
    "isOperating": true,
    "approvalDate": "2022-11-04"
  },
  {
    "id": 4773,
    "businessName": "노리팡팡",
    "longitude": 128.2219705,
    "latitude": 37.1235464,
    "address": "충청북도 제천시 장평천로 27-13, 1층 (강제동)",
    "totalGameMachines": 23,
    "phone": null,
    "isOperating": true,
    "approvalDate": "2022-10-12"
  },
  {
    "id": 4774,
    "businessName": "크라우드PC",
    "longitude": 127.7941148,
    "latitude": 36.8105177,
    "address": "충청북도 괴산군 괴산읍 읍내로13길 13, 한양빌딩 3층",
    "totalGameMachines": 75,
    "phone": null,
    "isOperating": true,
    "approvalDate": "2022-10-06"
  },
  {
    "id": 4775,
    "businessName": "게임스토리",
    "longitude": 127.4269089,
    "latitude": 36.7120342,
    "address": "충청북도 청주시 청원구 오창읍 오창공원로 127, 엘파크 B102호",
    "totalGameMachines": 8,
    "phone": "043-216-3222",
    "isOperating": true,
    "approvalDate": "2022-07-28"
  },
  {
    "id": 4776,
    "businessName": "FRIENDS#용산점",
    "longitude": 127.9369044,
    "latitude": 36.9645144,
    "address": "충청북도 충주시 거룡2길 73-1, 1층 (용산동)",
    "totalGameMachines": 7,
    "phone": null,
    "isOperating": true,
    "approvalDate": "2022-07-04"
  },
  {
    "id": 4777,
    "businessName": "팡팡배틀존",
    "longitude": 127.4972265,
    "latitude": 36.6653149,
    "address": "충청북도 청주시 청원구 율량로202번길 30 (율량동)",
    "totalGameMachines": 10,
    "phone": null,
    "isOperating": true,
    "approvalDate": "2022-06-27"
  },
  {
    "id": 4778,
    "businessName": "포토스트리트&미미오락실",
    "longitude": 127.4449677,
    "latitude": 36.8549771,
    "address": "충청북도 진천군 진천읍 중앙동로 56-1, 1층",
    "totalGameMachines": 11,
    "phone": null,
    "isOperating": true,
    "approvalDate": "2022-06-16"
  },
  {
    "id": 4779,
    "businessName": "펀앤조이",
    "longitude": 127.489359,
    "latitude": 36.63456,
    "address": "충청북도 청주시 상당구 상당로69번길 20, 3층 (북문로1가)",
    "totalGameMachines": 18,
    "phone": null,
    "isOperating": true,
    "approvalDate": "2022-05-23"
  },
  {
    "id": 4780,
    "businessName": "짱구게임",
    "longitude": 127.4309406,
    "latitude": 36.4971028,
    "address": "충청북도 청주시 서원구 현도면 경부고속도로 290, 죽암휴게소 서울종점",
    "totalGameMachines": 8,
    "phone": null,
    "isOperating": true,
    "approvalDate": "2022-05-04"
  },
  {
    "id": 4781,
    "businessName": "인형뽑기08",
    "longitude": 127.4423212,
    "latitude": 36.8587344,
    "address": "충청북도 진천군 진천읍 중앙서로 11, 1층",
    "totalGameMachines": 5,
    "phone": null,
    "isOperating": true,
    "approvalDate": "2022-04-27"
  },
  {
    "id": 4782,
    "businessName": "토이월드",
    "longitude": 127.4796337,
    "latitude": 36.6168375,
    "address": "충청북도 청주시 서원구 구룡산로326번길 40, 102호 (수곡동)",
    "totalGameMachines": 6,
    "phone": null,
    "isOperating": true,
    "approvalDate": "2021-12-17"
  },
  {
    "id": 4783,
    "businessName": "노리존게임월드",
    "longitude": 127.5168921,
    "latitude": 36.6158033,
    "address": "충청북도 청주시 상당구 중고개로141번길 13-18, 303,304호 (용암동)",
    "totalGameMachines": 22,
    "phone": null,
    "isOperating": true,
    "approvalDate": "2021-12-15"
  },
  {
    "id": 4784,
    "businessName": "GAME ZONE",
    "longitude": 127.7207905,
    "latitude": 36.4829837,
    "address": "충청북도 보은군 보은읍 삼산남로 20, 노래방 1층",
    "totalGameMachines": 6,
    "phone": null,
    "isOperating": true,
    "approvalDate": "2021-12-09"
  },
  {
    "id": 4785,
    "businessName": "미미오락실",
    "longitude": 127.422963,
    "latitude": 36.7160982,
    "address": "충청북도 청주시 청원구 오창읍 과학산업2로 379, 호수원룸텔 103호",
    "totalGameMachines": 0,
    "phone": null,
    "isOperating": true,
    "approvalDate": "2021-11-22"
  },
  {
    "id": 4786,
    "businessName": "뽑기마켓",
    "longitude": 127.4317925,
    "latitude": 36.9374926,
    "address": "충청북도 진천군 이월면 진광로 871",
    "totalGameMachines": 18,
    "phone": null,
    "isOperating": true,
    "approvalDate": "2021-11-17"
  },
  {
    "id": 4787,
    "businessName": "Oh!ROCK",
    "longitude": 128.0459666,
    "latitude": 37.1590696,
    "address": "충청북도 제천시 백운면 금봉로 365, 클럽하우스 3층",
    "totalGameMachines": 28,
    "phone": "043-649-6022",
    "isOperating": true,
    "approvalDate": "2021-07-21"
  },
  {
    "id": 4788,
    "businessName": "J놀이터",
    "longitude": 127.5436172,
    "latitude": 36.9088727,
    "address": "충청북도 음성군 맹동면 대하4길 6-5, 110호",
    "totalGameMachines": 12,
    "phone": null,
    "isOperating": true,
    "approvalDate": "2021-06-25"
  },
  {
    "id": 4789,
    "businessName": "365뽑기",
    "longitude": 127.4452393,
    "latitude": 36.9909311,
    "address": "충청북도 진천군 광혜원면 장기2길 8-1, 1층",
    "totalGameMachines": 15,
    "phone": null,
    "isOperating": true,
    "approvalDate": "2021-06-22"
  },
  {
    "id": 4790,
    "businessName": "겜조이(2호점)",
    "longitude": 127.5870016,
    "latitude": 36.7895554,
    "address": "충청북도 증평군 증평읍 북부두름길 48, 리오프라자 1층 106호",
    "totalGameMachines": 21,
    "phone": null,
    "isOperating": true,
    "approvalDate": "2021-05-11"
  },
  {
    "id": 4791,
    "businessName": "오락왕",
    "longitude": 127.3321191,
    "latitude": 36.630274,
    "address": "충청북도 청주시 흥덕구 오송읍 오송생명로 210, 오송스퀘어 109호",
    "totalGameMachines": 15,
    "phone": null,
    "isOperating": true,
    "approvalDate": "2021-05-10"
  },
  {
    "id": 4792,
    "businessName": "뽑기고수",
    "longitude": 127.5171966,
    "latitude": 36.6159538,
    "address": "충청북도 청주시 상당구 중고개로141번길 13-20, 허브프라자 115호 (용암동)",
    "totalGameMachines": 9,
    "phone": null,
    "isOperating": true,
    "approvalDate": "2021-01-20"
  },
  {
    "id": 4793,
    "businessName": "친구야 뽑기하자",
    "longitude": 128.2155606,
    "latitude": 37.1577802,
    "address": "충청북도 제천시 고암로14길 12 (청전동)",
    "totalGameMachines": 11,
    "phone": null,
    "isOperating": true,
    "approvalDate": "2020-12-09"
  },
  {
    "id": 4794,
    "businessName": "짱구게임",
    "longitude": 127.9409427,
    "latitude": 36.9846061,
    "address": "충청북도 충주시 연수동산로6길 18, 1층 (연수동)",
    "totalGameMachines": 27,
    "phone": null,
    "isOperating": true,
    "approvalDate": "2020-11-18"
  },
  {
    "id": 4795,
    "businessName": "뽀끼뽀끼",
    "longitude": 127.4406025,
    "latitude": 36.6350812,
    "address": "충청북도 청주시 흥덕구 복대로 207, 102호 (복대동)",
    "totalGameMachines": 10,
    "phone": null,
    "isOperating": true,
    "approvalDate": "2020-10-30"
  },
  {
    "id": 4796,
    "businessName": "뽑기나라 2호점",
    "longitude": 127.5428621,
    "latitude": 36.9069655,
    "address": "충청북도 음성군 맹동면 대하2길 13, 1층 105호",
    "totalGameMachines": 9,
    "phone": null,
    "isOperating": true,
    "approvalDate": "2020-10-23"
  },
  {
    "id": 4797,
    "businessName": "뽑다방",
    "longitude": 127.4511315,
    "latitude": 36.7328132,
    "address": "충청북도 청주시 청원구 오창읍 주성1길 18, 104호",
    "totalGameMachines": 13,
    "phone": null,
    "isOperating": true,
    "approvalDate": "2020-09-09"
  },
  {
    "id": 4798,
    "businessName": "오락노리",
    "longitude": 127.4903058,
    "latitude": 36.6560011,
    "address": "충청북도 청주시 청원구 상당로 314, 청주첨단문화산업단지 5층 (내덕동)",
    "totalGameMachines": 31,
    "phone": null,
    "isOperating": true,
    "approvalDate": "2020-09-01"
  },
  {
    "id": 4799,
    "businessName": "뽑기하고갈래 3호점",
    "longitude": 127.5072977,
    "latitude": 36.910944,
    "address": "충청북도 진천군 덕산읍 초금로 746, 왕자신발 1층 101호",
    "totalGameMachines": 7,
    "phone": null,
    "isOperating": true,
    "approvalDate": "2020-07-24"
  },
  {
    "id": 4800,
    "businessName": "벨포레게임존",
    "longitude": 127.5785039,
    "latitude": 36.8460862,
    "address": "충청북도 증평군 도안면 벨포레길 367, 루지하우스",
    "totalGameMachines": 38,
    "phone": null,
    "isOperating": true,
    "approvalDate": "2020-07-07"
  },
  {
    "id": 4801,
    "businessName": "뽀끼뽀끼 오락실",
    "longitude": 128.1969108,
    "latitude": 37.1216386,
    "address": "충청북도 제천시 청풍호로10길 53 (강제동, 롯데캐슬프리미어)",
    "totalGameMachines": 23,
    "phone": null,
    "isOperating": true,
    "approvalDate": "2020-07-01"
  },
  {
    "id": 4802,
    "businessName": "GAME ZONE(오락실)",
    "longitude": 128.3625074,
    "latitude": 36.9779938,
    "address": "충청북도 단양군 단양읍 삼봉로 187-17, 대명콘도",
    "totalGameMachines": 12,
    "phone": "043-420-8302",
    "isOperating": true,
    "approvalDate": "2020-05-21"
  },
  {
    "id": 4803,
    "businessName": "인형뽑기29",
    "longitude": 127.4445812,
    "latitude": 36.8616395,
    "address": "충청북도 진천군 진천읍 중앙동로 135, 1층",
    "totalGameMachines": 5,
    "phone": null,
    "isOperating": true,
    "approvalDate": "2020-05-20"
  },
  {
    "id": 4804,
    "businessName": "오!뽑기",
    "longitude": 127.4579646,
    "latitude": 36.6500755,
    "address": "충청북도 청주시 흥덕구 덕암로114번길 86, 1층 102호 (봉명동)",
    "totalGameMachines": 23,
    "phone": null,
    "isOperating": true,
    "approvalDate": "2020-05-13"
  },
  {
    "id": 4805,
    "businessName": "다모아뽑기방",
    "longitude": 127.4706695,
    "latitude": 36.6207679,
    "address": "충청북도 청주시 서원구 수곡로 101, 1층 (수곡동)",
    "totalGameMachines": 13,
    "phone": null,
    "isOperating": true,
    "approvalDate": "2020-05-13"
  },
  {
    "id": 4806,
    "businessName": "플레이스퀘어",
    "longitude": 127.8982525,
    "latitude": 36.9617784,
    "address": "충청북도 충주시 중원대로 3683, 해피몰 롯데시네마 4층 (달천동)",
    "totalGameMachines": 10,
    "phone": null,
    "isOperating": true,
    "approvalDate": "2020-04-10"
  },
  {
    "id": 4807,
    "businessName": "인형뽑기",
    "longitude": 127.5064571,
    "latitude": 36.9114759,
    "address": "충청북도 진천군 덕산읍 초금로 753",
    "totalGameMachines": 5,
    "phone": null,
    "isOperating": true,
    "approvalDate": "2020-03-31"
  },
  {
    "id": 4808,
    "businessName": "프라임 플레이 존",
    "longitude": 127.4943376,
    "latitude": 36.665219,
    "address": "충청북도 청주시 청원구 율량로202번길 80, 103호 (율량동)",
    "totalGameMachines": 23,
    "phone": null,
    "isOperating": true,
    "approvalDate": "2020-02-27"
  },
  {
    "id": 4809,
    "businessName": "썸오락실",
    "longitude": 127.4943376,
    "latitude": 36.665219,
    "address": "충청북도 청주시 청원구 율량로202번길 80, 104호 (율량동)",
    "totalGameMachines": 22,
    "phone": null,
    "isOperating": true,
    "approvalDate": "2020-02-27"
  },
  {
    "id": 4810,
    "businessName": "오! 뽑기",
    "longitude": 127.4971741,
    "latitude": 36.6645306,
    "address": "충청북도 청주시 청원구 1순환로 140, 1층 104호 (율량동)",
    "totalGameMachines": 15,
    "phone": null,
    "isOperating": true,
    "approvalDate": "2020-01-17"
  },
  {
    "id": 4811,
    "businessName": "인형뽑기",
    "longitude": 127.4227225,
    "latitude": 36.7168368,
    "address": "충청북도 청주시 청원구 오창읍 양청택지로 103, 1층",
    "totalGameMachines": 6,
    "phone": null,
    "isOperating": true,
    "approvalDate": "2020-01-16"
  },
  {
    "id": 4812,
    "businessName": "팡팡배틀존",
    "longitude": 127.578682,
    "latitude": 36.7888753,
    "address": "충청북도 증평군 증평읍 인삼로 77, 1층",
    "totalGameMachines": 8,
    "phone": null,
    "isOperating": true,
    "approvalDate": "2020-01-02"
  },
  {
    "id": 4813,
    "businessName": "JACKSON9s",
    "longitude": 127.9350547,
    "latitude": 36.9558346,
    "address": "충청북도 충주시 호암토성2로 7, 삼성프라자 5,6층 (호암동)",
    "totalGameMachines": 34,
    "phone": "043-844-9997",
    "isOperating": true,
    "approvalDate": "2019-12-23"
  },
  {
    "id": 4814,
    "businessName": "대영게임장",
    "longitude": 127.5007946,
    "latitude": 36.9669801,
    "address": "충청북도 음성군 대소면 대금로 565, 1층",
    "totalGameMachines": 40,
    "phone": null,
    "isOperating": true,
    "approvalDate": "2019-12-16"
  },
  {
    "id": 4815,
    "businessName": "문화게임랜드",
    "longitude": 127.9294686,
    "latitude": 36.9677499,
    "address": "충청북도 충주시 사직로 151, 1층 (문화동)",
    "totalGameMachines": 40,
    "phone": null,
    "isOperating": true,
    "approvalDate": "2019-10-28"
  },
  {
    "id": 4816,
    "businessName": "뽑기뽑기",
    "longitude": 127.4508875,
    "latitude": 36.6364749,
    "address": "충청북도 청주시 흥덕구 사직대로29번길 42, 성화건설 101호동 (복대동)",
    "totalGameMachines": 8,
    "phone": null,
    "isOperating": true,
    "approvalDate": "2019-08-30"
  },
  {
    "id": 4817,
    "businessName": "뽑기의 품격",
    "longitude": 127.4520508,
    "latitude": 36.6149339,
    "address": "충청북도 청주시 서원구 구룡산로51번가길 14, 1층 102호 (성화동)",
    "totalGameMachines": 9,
    "phone": null,
    "isOperating": true,
    "approvalDate": "2019-08-21"
  },
  {
    "id": 4818,
    "businessName": "토이뽑기방",
    "longitude": 127.4673051,
    "latitude": 36.6421757,
    "address": "충청북도 청주시 흥덕구 예체로179번길 29 (봉명동)",
    "totalGameMachines": 11,
    "phone": null,
    "isOperating": true,
    "approvalDate": "2019-08-09"
  },
  {
    "id": 4819,
    "businessName": "뽑기뽑기",
    "longitude": 127.3268998,
    "latitude": 36.6233701,
    "address": "충청북도 청주시 흥덕구 오송읍 만수길 14-2, 1층 106호",
    "totalGameMachines": 8,
    "phone": null,
    "isOperating": true,
    "approvalDate": "2019-06-12"
  },
  {
    "id": 4820,
    "businessName": "J놀이터",
    "longitude": 127.5436172,
    "latitude": 36.9088727,
    "address": "충청북도 음성군 맹동면 대하4길 6-5, 1층 110호",
    "totalGameMachines": 17,
    "phone": null,
    "isOperating": true,
    "approvalDate": "2019-05-31"
  },
  {
    "id": 4821,
    "businessName": "JJ놀이터",
    "longitude": 127.544091,
    "latitude": 36.9086279,
    "address": "충청북도 음성군 맹동면 대하4길 6-13, 1층 103호",
    "totalGameMachines": 12,
    "phone": null,
    "isOperating": true,
    "approvalDate": "2019-05-31"
  },
  {
    "id": 4822,
    "businessName": "팡팡게임랜드",
    "longitude": 128.2126041,
    "latitude": 37.1495255,
    "address": "충청북도 제천시 의림대로33길 22, 대명빌딩 (청전동)",
    "totalGameMachines": 39,
    "phone": null,
    "isOperating": true,
    "approvalDate": "2019-04-22"
  },
  {
    "id": 4823,
    "businessName": "맥스원 충북혁신점",
    "longitude": 127.5406456,
    "latitude": 36.9080674,
    "address": "충청북도 음성군 맹동면 대하1길 10, 5층 502호",
    "totalGameMachines": 24,
    "phone": null,
    "isOperating": true,
    "approvalDate": "2019-04-12"
  },
  {
    "id": 4824,
    "businessName": "뽑기하고 갈래",
    "longitude": 127.5336974,
    "latitude": 36.9024738,
    "address": "충청북도 진천군 덕산읍 시가로 14, 1층",
    "totalGameMachines": 11,
    "phone": null,
    "isOperating": true,
    "approvalDate": "2019-04-01"
  },
  {
    "id": 4825,
    "businessName": "짱놀이터",
    "longitude": 127.4579734,
    "latitude": 36.652155,
    "address": "충청북도 청주시 흥덕구 덕암로30번길 31, 104호 (봉명동)",
    "totalGameMachines": 13,
    "phone": null,
    "isOperating": true,
    "approvalDate": "2019-03-29"
  },
  {
    "id": 4826,
    "businessName": "뽑기보다 뽑GO",
    "longitude": 127.507355,
    "latitude": 36.9098938,
    "address": "충청북도 진천군 덕산면 초금로 733-1, 1층",
    "totalGameMachines": 9,
    "phone": null,
    "isOperating": true,
    "approvalDate": "2019-03-25"
  },
  {
    "id": 4827,
    "businessName": "인형과 함께",
    "longitude": 127.9331567,
    "latitude": 36.9703185,
    "address": "충청북도 충주시 예성로 149, 1층 (성서동)",
    "totalGameMachines": 9,
    "phone": null,
    "isOperating": true,
    "approvalDate": "2019-01-31"
  },
  {
    "id": 4828,
    "businessName": "뽑기방",
    "longitude": 127.8253884,
    "latitude": 37.0166456,
    "address": "충청북도 충주시 중앙탑면 원앙길 8-13, 1층 105호",
    "totalGameMachines": 18,
    "phone": null,
    "isOperating": true,
    "approvalDate": "2019-01-29"
  },
  {
    "id": 4829,
    "businessName": "겜조이",
    "longitude": 127.5836747,
    "latitude": 36.7843655,
    "address": "충청북도 증평군 증평읍 광장로 108, 1층",
    "totalGameMachines": 11,
    "phone": null,
    "isOperating": true,
    "approvalDate": "2018-12-07"
  },
  {
    "id": 4830,
    "businessName": "인형왕국",
    "longitude": 127.7775897,
    "latitude": 36.1742518,
    "address": "충청북도 영동군 영동읍 계산로1길 12 (음식점)",
    "totalGameMachines": 10,
    "phone": null,
    "isOperating": true,
    "approvalDate": "2018-12-03"
  },
  {
    "id": 4831,
    "businessName": "토이조이",
    "longitude": 127.4276425,
    "latitude": 36.630971,
    "address": "충청북도 청주시 흥덕구 짐대로72번길 41, 108호 (복대동)",
    "totalGameMachines": 15,
    "phone": null,
    "isOperating": true,
    "approvalDate": "2018-11-02"
  },
  {
    "id": 4832,
    "businessName": "야구연습장",
    "longitude": 127.4440827,
    "latitude": 36.8534952,
    "address": "충청북도 진천군 진천읍 남산7길 7-1",
    "totalGameMachines": null,
    "phone": null,
    "isOperating": true,
    "approvalDate": "2018-09-18"
  },
  {
    "id": 4833,
    "businessName": "봉명뽑기방",
    "longitude": 127.4671331,
    "latitude": 36.63974,
    "address": "충청북도 청주시 서원구 봉명로 230, 1층 (사창동)",
    "totalGameMachines": 9,
    "phone": null,
    "isOperating": true,
    "approvalDate": "2018-08-23"
  },
  {
    "id": 4834,
    "businessName": "뽑기달인",
    "longitude": 127.4446953,
    "latitude": 36.8543314,
    "address": "충청북도 진천군 진천읍 중앙동로 50, 1층",
    "totalGameMachines": null,
    "phone": null,
    "isOperating": true,
    "approvalDate": "2018-04-02"
  },
  {
    "id": 4835,
    "businessName": "게임광장",
    "longitude": 127.8322598,
    "latitude": 36.9859489,
    "address": "충청북도 충주시 대소원면 첨단쉼터1길 12",
    "totalGameMachines": 60,
    "phone": null,
    "isOperating": true,
    "approvalDate": "2018-03-08"
  },
  {
    "id": 4836,
    "businessName": "공원게임랜드",
    "longitude": 127.5037793,
    "latitude": 36.6097409,
    "address": "충청북도 청주시 상당구 월평로184번길 19, 지하1층호 (용암동)",
    "totalGameMachines": 40,
    "phone": null,
    "isOperating": true,
    "approvalDate": "2018-02-27"
  },
  {
    "id": 4837,
    "businessName": "앞마당오락실",
    "longitude": 127.3296976,
    "latitude": 36.6305732,
    "address": "충청북도 청주시 흥덕구 오송읍 오송생명5로 184-4, 오송생명타워 204호",
    "totalGameMachines": 13,
    "phone": null,
    "isOperating": true,
    "approvalDate": "2018-02-13"
  },
  {
    "id": 4838,
    "businessName": "우리동네 놀이터",
    "longitude": 127.4875587,
    "latitude": 36.969174,
    "address": "충청북도 음성군 대소면 오태로99번길 22, 1층",
    "totalGameMachines": 18,
    "phone": null,
    "isOperating": true,
    "approvalDate": "2018-01-31"
  },
  {
    "id": 4839,
    "businessName": "운천게임랜드",
    "longitude": 127.4747288,
    "latitude": 36.6503,
    "address": "충청북도 청주시 흥덕구 사운로 248 (운천동)",
    "totalGameMachines": 40,
    "phone": null,
    "isOperating": true,
    "approvalDate": "2017-12-20"
  },
  {
    "id": 4840,
    "businessName": "플레이존게임",
    "longitude": 127.4597899,
    "latitude": 36.6334651,
    "address": "충청북도 청주시 서원구 1순환로672번길 5, 1층 (사창동)",
    "totalGameMachines": 15,
    "phone": null,
    "isOperating": true,
    "approvalDate": "2017-12-14"
  },
  {
    "id": 4841,
    "businessName": "프라임플레이존",
    "longitude": 127.428413,
    "latitude": 36.7169346,
    "address": "충청북도 청주시 청원구 오창읍 과학산업2로 430, 101호",
    "totalGameMachines": 11,
    "phone": null,
    "isOperating": true,
    "approvalDate": "2017-12-12"
  },
  {
    "id": 4842,
    "businessName": "타겟헌터",
    "longitude": 127.4276425,
    "latitude": 36.630971,
    "address": "충청북도 청주시 흥덕구 짐대로72번길 41, 112호 (복대동)",
    "totalGameMachines": 10,
    "phone": null,
    "isOperating": true,
    "approvalDate": "2017-12-08"
  },
  {
    "id": 4843,
    "businessName": "흥부네 뽑기방",
    "longitude": 127.4391995,
    "latitude": 36.6360627,
    "address": "충청북도 청주시 흥덕구 죽천로146번길 39, 1층 (복대동)",
    "totalGameMachines": 5,
    "phone": null,
    "isOperating": true,
    "approvalDate": "2017-11-15"
  },
  {
    "id": 4844,
    "businessName": "덕산 게임장",
    "longitude": 127.5080622,
    "latitude": 36.9108446,
    "address": "충청북도 진천군 덕산읍 용몽로 5-10, 1층",
    "totalGameMachines": 60,
    "phone": null,
    "isOperating": true,
    "approvalDate": "2017-11-08"
  },
  {
    "id": 4845,
    "businessName": "조이게임랜드",
    "longitude": 127.4963441,
    "latitude": 36.6649687,
    "address": "충청북도 청주시 청원구 율량로202번길 40, 1층 102호 (율량동)",
    "totalGameMachines": 17,
    "phone": null,
    "isOperating": true,
    "approvalDate": "2017-11-08"
  },
  {
    "id": 4846,
    "businessName": "FRIENDS# 주덕점(프렌즈샵 주덕점)",
    "longitude": 127.798376,
    "latitude": 36.973503,
    "address": "충청북도 충주시 주덕읍 신덕로 1388-1, 1층",
    "totalGameMachines": 3,
    "phone": null,
    "isOperating": true,
    "approvalDate": "2017-10-17"
  },
  {
    "id": 4847,
    "businessName": "뽑기나라",
    "longitude": 127.5436172,
    "latitude": 36.9088727,
    "address": "충청북도 음성군 맹동면 대하4길 6-5, 106호",
    "totalGameMachines": 13,
    "phone": null,
    "isOperating": true,
    "approvalDate": "2017-09-19"
  },
  {
    "id": 4848,
    "businessName": "인형천국",
    "longitude": 127.4161893,
    "latitude": 36.7086258,
    "address": "충청북도 청주시 청원구 오창읍 과학산업5로 118-12, 1층",
    "totalGameMachines": 9,
    "phone": null,
    "isOperating": true,
    "approvalDate": "2017-09-18"
  },
  {
    "id": 4849,
    "businessName": "광장게임랜드",
    "longitude": 127.5048403,
    "latitude": 36.6310682,
    "address": "충청북도 청주시 상당구 산성로98번길 24, 1층 (금천동)",
    "totalGameMachines": 17,
    "phone": null,
    "isOperating": true,
    "approvalDate": "2017-09-15"
  },
  {
    "id": 4850,
    "businessName": "스카이게임랜드",
    "longitude": 127.5229077,
    "latitude": 36.9071918,
    "address": "충청북도 진천군 덕산면 용몽로 152",
    "totalGameMachines": null,
    "phone": null,
    "isOperating": true,
    "approvalDate": "2017-08-30"
  },
  {
    "id": 4851,
    "businessName": "뽑기오빠",
    "longitude": 127.4289031,
    "latitude": 36.7159279,
    "address": "충청북도 청주시 청원구 오창읍 중심상업1로 8-46, 112호",
    "totalGameMachines": 10,
    "phone": null,
    "isOperating": true,
    "approvalDate": "2017-05-24"
  },
  {
    "id": 4852,
    "businessName": "인형사랑",
    "longitude": 127.4842386,
    "latitude": 36.6226276,
    "address": "충청북도 청주시 서원구 구룡산로337번길 105-1 (모충동)",
    "totalGameMachines": 14,
    "phone": null,
    "isOperating": true,
    "approvalDate": "2017-05-12"
  },
  {
    "id": 4853,
    "businessName": "학사 뽑기방",
    "longitude": 128.1950262,
    "latitude": 37.1712006,
    "address": "충청북도 제천시 학사촌길 5 (신월동)",
    "totalGameMachines": 10,
    "phone": null,
    "isOperating": true,
    "approvalDate": "2017-04-04"
  },
  {
    "id": 4854,
    "businessName": "뽑다방",
    "longitude": 127.4277747,
    "latitude": 36.7125048,
    "address": "충청북도 청주시 청원구 오창읍 중심상업1로 20, 120호",
    "totalGameMachines": 11,
    "phone": null,
    "isOperating": true,
    "approvalDate": "2017-04-03"
  },
  {
    "id": 4855,
    "businessName": "토이짱",
    "longitude": 127.4439394,
    "latitude": 36.8545946,
    "address": "충청북도 진천군 진천읍 상산로 88-1",
    "totalGameMachines": null,
    "phone": null,
    "isOperating": true,
    "approvalDate": "2017-03-09"
  },
  {
    "id": 4856,
    "businessName": "(주)정진산업",
    "longitude": 127.426322,
    "latitude": 36.6447878,
    "address": "충청북도 청주시 흥덕구 직지대로 308, 현대백화점 (복대동)",
    "totalGameMachines": 4,
    "phone": null,
    "isOperating": true,
    "approvalDate": "2017-02-23"
  },
  {
    "id": 4857,
    "businessName": "도전뽑기천국",
    "longitude": 127.483874,
    "latitude": 36.9685975,
    "address": "충청북도 음성군 대소면 오태로 75, 1층",
    "totalGameMachines": 6,
    "phone": null,
    "isOperating": true,
    "approvalDate": "2017-02-15"
  },
  {
    "id": 4858,
    "businessName": "인형뽑기샵",
    "longitude": 127.4388608,
    "latitude": 36.8599553,
    "address": "충청북도 진천군 진천읍 중앙북1길 3 (진천터미널)",
    "totalGameMachines": null,
    "phone": null,
    "isOperating": true,
    "approvalDate": "2017-02-09"
  },
  {
    "id": 4859,
    "businessName": "인형뽑기달인",
    "longitude": 127.4599124,
    "latitude": 36.6500764,
    "address": "충청북도 청주시 흥덕구 덕암로114번길 50, 1층 (봉명동)",
    "totalGameMachines": 23,
    "phone": null,
    "isOperating": true,
    "approvalDate": "2017-02-08"
  },
  {
    "id": 4860,
    "businessName": "스타오락실",
    "longitude": 127.4747739,
    "latitude": 36.6495189,
    "address": "충청북도 청주시 흥덕구 사운로 241, 1층 (운천동)",
    "totalGameMachines": 23,
    "phone": null,
    "isOperating": true,
    "approvalDate": "2016-12-20"
  },
  {
    "id": 4861,
    "businessName": "허니몬 뽑기샵",
    "longitude": 127.3319509,
    "latitude": 36.629938,
    "address": "충청북도 청주시 흥덕구 오송읍 오송생명로 208-8",
    "totalGameMachines": 9,
    "phone": null,
    "isOperating": true,
    "approvalDate": "2016-12-16"
  },
  {
    "id": 4862,
    "businessName": "인형천국",
    "longitude": 127.4443414,
    "latitude": 36.8546545,
    "address": "충청북도 진천군 진천읍 중앙동로 51",
    "totalGameMachines": null,
    "phone": null,
    "isOperating": true,
    "approvalDate": "2016-12-08"
  },
  {
    "id": 4863,
    "businessName": "뽑기의 신",
    "longitude": 127.4792637,
    "latitude": 36.666947,
    "address": "충청북도 청주시 청원구 주성로96번길 46, 1층 (율량동)",
    "totalGameMachines": 15,
    "phone": null,
    "isOperating": true,
    "approvalDate": "2016-12-02"
  },
  {
    "id": 4864,
    "businessName": "짱오락실",
    "longitude": 127.4895529,
    "latitude": 36.6359427,
    "address": "충청북도 청주시 상당구 성안로 13, 씨유멀티플렉스 1층 1005호 (북문로1가)",
    "totalGameMachines": 43,
    "phone": null,
    "isOperating": true,
    "approvalDate": "2016-10-26"
  },
  {
    "id": 4865,
    "businessName": "FUN＆FUN",
    "longitude": 127.94013,
    "latitude": 36.9838926,
    "address": "충청북도 충주시 연수동산로5길 9 (연수동)",
    "totalGameMachines": 20,
    "phone": null,
    "isOperating": true,
    "approvalDate": "2016-10-21"
  },
  {
    "id": 4866,
    "businessName": "밀고뽑고gogo방",
    "longitude": 127.4614534,
    "latitude": 36.6400283,
    "address": "충청북도 청주시 흥덕구 봉명로 177, 103호 (봉명동)",
    "totalGameMachines": 7,
    "phone": null,
    "isOperating": true,
    "approvalDate": "2016-10-20"
  },
  {
    "id": 4867,
    "businessName": "행운뽑기샵",
    "longitude": 127.4857115,
    "latitude": 36.6707249,
    "address": "충청북도 청주시 청원구 율봉로159번길 52, 1층 (율량동)",
    "totalGameMachines": 8,
    "phone": null,
    "isOperating": true,
    "approvalDate": "2016-09-23"
  },
  {
    "id": 4868,
    "businessName": "스펀지",
    "longitude": 127.9328448,
    "latitude": 36.9705542,
    "address": "충청북도 충주시 예성로 151 (성서동)",
    "totalGameMachines": 18,
    "phone": null,
    "isOperating": true,
    "approvalDate": "2016-09-21"
  },
  {
    "id": 4869,
    "businessName": "짱 놀이터",
    "longitude": 127.5438022,
    "latitude": 36.9091176,
    "address": "충청북도 음성군 맹동면 대하4길 10",
    "totalGameMachines": 16,
    "phone": null,
    "isOperating": true,
    "approvalDate": "2016-09-07"
  },
  {
    "id": 4870,
    "businessName": "뽑다방",
    "longitude": 127.9314162,
    "latitude": 36.9721058,
    "address": "충청북도 충주시 성서7길 29-1 (성서동)",
    "totalGameMachines": 10,
    "phone": null,
    "isOperating": true,
    "approvalDate": "2016-08-26"
  },
  {
    "id": 4871,
    "businessName": "럭키박스",
    "longitude": 127.585014,
    "latitude": 36.990735,
    "address": "충청북도 음성군 금왕읍 탑골길 2",
    "totalGameMachines": 10,
    "phone": null,
    "isOperating": true,
    "approvalDate": "2016-08-18"
  },
  {
    "id": 4872,
    "businessName": "짱 오락실",
    "longitude": 127.4690934,
    "latitude": 36.6115009,
    "address": "충청북도 청주시 서원구 산남로 48, 1층 113호 (산남동)",
    "totalGameMachines": 33,
    "phone": null,
    "isOperating": true,
    "approvalDate": "2016-07-14"
  },
  {
    "id": 4874,
    "businessName": "인형천국",
    "longitude": 127.4822244,
    "latitude": 36.6224082,
    "address": "충청북도 청주시 서원구 서원남로 50-1, 1층 (모충동)",
    "totalGameMachines": 10,
    "phone": null,
    "isOperating": true,
    "approvalDate": "2016-06-08"
  },
  {
    "id": 4875,
    "businessName": "토이랜드",
    "longitude": 127.4395501,
    "latitude": 36.859953,
    "address": "충청북도 진천군 진천읍 중앙북1길 3, 진천터미널 3층",
    "totalGameMachines": 13,
    "phone": null,
    "isOperating": true,
    "approvalDate": "2016-03-29"
  },
  {
    "id": 4876,
    "businessName": "드림 BOX",
    "longitude": 127.9336085,
    "latitude": 36.9703645,
    "address": "충청북도 충주시 예성로 150 (성서동)",
    "totalGameMachines": 7,
    "phone": null,
    "isOperating": true,
    "approvalDate": "2016-03-29"
  },
  {
    "id": 4877,
    "businessName": "광대게임장",
    "longitude": 127.4440666,
    "latitude": 36.9884493,
    "address": "충청북도 진천군 광혜원면 장기길 78-0, 2층",
    "totalGameMachines": null,
    "phone": null,
    "isOperating": true,
    "approvalDate": "2015-12-04"
  },
  {
    "id": 4878,
    "businessName": "행운게임랜드",
    "longitude": 127.9308909,
    "latitude": 36.9691612,
    "address": "충청북도 충주시 사직로 178 (지현동)",
    "totalGameMachines": 40,
    "phone": null,
    "isOperating": true,
    "approvalDate": "2014-02-14"
  },
  {
    "id": 4879,
    "businessName": "솔로몬게임랜드",
    "longitude": 127.4316823,
    "latitude": 36.6284848,
    "address": "충청북도 청주시 흥덕구 풍년로 182-1 (가경동)",
    "totalGameMachines": 40,
    "phone": null,
    "isOperating": true,
    "approvalDate": "2013-09-06"
  },
  {
    "id": 4880,
    "businessName": "환호게임장",
    "longitude": 127.5348651,
    "latitude": 36.9762032,
    "address": "충청북도 음성군 대소면 대금로 904",
    "totalGameMachines": 50,
    "phone": null,
    "isOperating": true,
    "approvalDate": "2013-05-01"
  },
  {
    "id": 4881,
    "businessName": "씨앤드래곤",
    "longitude": 127.4438857,
    "latitude": 36.8584257,
    "address": "충청북도 진천군 진천읍 중앙북로 62",
    "totalGameMachines": 40,
    "phone": null,
    "isOperating": true,
    "approvalDate": "2013-05-01"
  },
  {
    "id": 4882,
    "businessName": "게임박스",
    "longitude": 127.9328448,
    "latitude": 36.9705542,
    "address": "충청북도 충주시 예성로 151, 1층 106호 (성서동)",
    "totalGameMachines": 20,
    "phone": null,
    "isOperating": true,
    "approvalDate": "2013-03-20"
  },
  {
    "id": 4883,
    "businessName": "월드게임랜드",
    "longitude": 127.4375441,
    "latitude": 36.8626003,
    "address": "충청북도 진천군 진천읍 문화6안길 7",
    "totalGameMachines": 40,
    "phone": null,
    "isOperating": true,
    "approvalDate": "2012-12-24"
  },
  {
    "id": 4884,
    "businessName": "큐브락",
    "longitude": 127.4891165,
    "latitude": 36.6326101,
    "address": "충청북도 청주시 상당구 성안로 50, 지하1층 (남문로2가)",
    "totalGameMachines": 7,
    "phone": null,
    "isOperating": true,
    "approvalDate": "2012-06-11"
  },
  {
    "id": 4885,
    "businessName": "월드게임장",
    "longitude": 127.4377607,
    "latitude": 36.8626868,
    "address": "충청북도 진천군 진천읍 문화6안길 7",
    "totalGameMachines": null,
    "phone": null,
    "isOperating": true,
    "approvalDate": "2012-05-11"
  },
  {
    "id": 4886,
    "businessName": "드림플러스 게임월드",
    "longitude": 127.4312969,
    "latitude": 36.6261987,
    "address": "충청북도 청주시 흥덕구 2순환로 1233, 드림플러스 8004.8005호 (가경동)",
    "totalGameMachines": 39,
    "phone": null,
    "isOperating": true,
    "approvalDate": "2012-03-29"
  },
  {
    "id": 4887,
    "businessName": "공단게임장",
    "longitude": 127.4405728,
    "latitude": 36.6368334,
    "address": "충청북도 청주시 흥덕구 복대로 225-1 (복대동)",
    "totalGameMachines": 50,
    "phone": null,
    "isOperating": true,
    "approvalDate": "2011-12-01"
  },
  {
    "id": 4888,
    "businessName": "노리존 청주점",
    "longitude": 127.4893012,
    "latitude": 36.638003,
    "address": "충청북도 청주시 상당구 중앙로 10 (북문로2가)",
    "totalGameMachines": 17,
    "phone": null,
    "isOperating": true,
    "approvalDate": "2011-11-09"
  },
  {
    "id": 4889,
    "businessName": "코인뮤직뱅크",
    "longitude": 127.871415,
    "latitude": 36.9644733,
    "address": "충청북도 충주시 대소원면 대학로 18",
    "totalGameMachines": null,
    "phone": null,
    "isOperating": true,
    "approvalDate": "2011-08-26"
  },
  {
    "id": 4890,
    "businessName": "대소 게임랜드",
    "longitude": 127.4642023,
    "latitude": 36.9797532,
    "address": "충청북도 음성군 대소면 대금로196번길 8-2",
    "totalGameMachines": 45,
    "phone": null,
    "isOperating": true,
    "approvalDate": "2011-05-23"
  },
  {
    "id": 4891,
    "businessName": "짱게임장",
    "longitude": 127.4450966,
    "latitude": 36.9905174,
    "address": "충청북도 진천군 광혜원면 장기2길 5",
    "totalGameMachines": 40,
    "phone": null,
    "isOperating": true,
    "approvalDate": "2010-01-25"
  },
  {
    "id": 4892,
    "businessName": "게임토피아 전자오락실",
    "longitude": 127.9853294,
    "latitude": 36.849845,
    "address": "충청북도 충주시 수안보면 수안보로 321-36",
    "totalGameMachines": 15,
    "phone": "846-8211",
    "isOperating": true,
    "approvalDate": "2010-01-18"
  },
  {
    "id": 4893,
    "businessName": "화성도시",
    "longitude": 127.4935964,
    "latitude": 36.6511554,
    "address": "충청북도 청주시 청원구 수암로 99 (우암동,1층)",
    "totalGameMachines": 30,
    "phone": "043-215-0295",
    "isOperating": true,
    "approvalDate": "2009-08-18"
  },
  {
    "id": 4894,
    "businessName": "컴퓨터휴게실",
    "longitude": 127.5069842,
    "latitude": 36.9108108,
    "address": "충청북도 진천군 덕산면 초금로 745",
    "totalGameMachines": 25,
    "phone": "536-4013",
    "isOperating": true,
    "approvalDate": "2007-12-04"
  },
  {
    "id": 6233,
    "businessName": "러키비키 진천혁신점",
    "longitude": 127.5342155,
    "latitude": 36.902963,
    "address": "충청북도 진천군 덕산읍 대하로 133, 1층 112호",
    "totalGameMachines": null,
    "phone": null,
    "isOperating": false,
    "approvalDate": "2025-09-05"
  },
  {
    "id": 6250,
    "businessName": "코코",
    "longitude": 127.3164594,
    "latitude": 36.6189272,
    "address": "충청북도 청주시 흥덕구 오송읍 오송생명11로 46, 101호",
    "totalGameMachines": null,
    "phone": null,
    "isOperating": false,
    "approvalDate": "2025-09-03"
  },
  {
    "id": 6289,
    "businessName": "DOLL MART",
    "longitude": 127.4893129,
    "latitude": 36.6355118,
    "address": "충청북도 청주시 상당구 상당로81번길 19, 에스듈의원 1층 (북문로1가)",
    "totalGameMachines": null,
    "phone": null,
    "isOperating": false,
    "approvalDate": "2025-09-10"
  },
  {
    "id": 6290,
    "businessName": "레인보우 게임랜드 지웰시티점",
    "longitude": 127.4281799,
    "latitude": 36.6445541,
    "address": "충청북도 청주시 흥덕구 대농로 45, 107호 (복대동, 청주지웰시티푸르지오)",
    "totalGameMachines": null,
    "phone": null,
    "isOperating": false,
    "approvalDate": "2025-09-10"
  },
  {
    "id": 6342,
    "businessName": "대왕오락실",
    "longitude": 127.4670488,
    "latitude": 36.6114059,
    "address": "충청북도 청주시 서원구 산남로 64, 엔젤변호사빌딩 1층 103호 (산남동)",
    "totalGameMachines": null,
    "phone": null,
    "isOperating": false,
    "approvalDate": "2025-09-16"
  },
  {
    "id": 6356,
    "businessName": "ZemnaZemna",
    "longitude": 127.9403784,
    "latitude": 36.9845936,
    "address": "충청북도 충주시 연수동산로5길 18 (연수동)",
    "totalGameMachines": null,
    "phone": null,
    "isOperating": false,
    "approvalDate": "2025-09-23"
  },
  {
    "id": 6370,
    "businessName": "대빵인형뽑기 구경시장 1호점",
    "longitude": 128.3697841,
    "latitude": 36.9825624,
    "address": "충청북도 단양군 단양읍 도전4길 30, 107호",
    "totalGameMachines": null,
    "phone": null,
    "isOperating": false,
    "approvalDate": "2025-09-26"
  },
  {
    "id": 6371,
    "businessName": "대빵인형뽑기 구경시장 2호점",
    "longitude": 128.3700187,
    "latitude": 36.9830995,
    "address": "충청북도 단양군 단양읍 도전5길 37, 105호",
    "totalGameMachines": null,
    "phone": null,
    "isOperating": false,
    "approvalDate": "2025-09-26"
  },
  {
    "id": 6403,
    "businessName": "레인보우캐슬 청대점",
    "longitude": 127.4879929,
    "latitude": 36.6515656,
    "address": "충청북도 청주시 청원구 직지대로 887, 1층 (우암동)",
    "totalGameMachines": null,
    "phone": null,
    "isOperating": false,
    "approvalDate": "2025-09-25"
  },
  {
    "id": 6404,
    "businessName": "레인보우 게임랜드 테크노점",
    "longitude": 127.4522011,
    "latitude": 36.6666917,
    "address": "충청북도 청주시 흥덕구 송화로166번길 7-7, 101호 (송절동)",
    "totalGameMachines": null,
    "phone": null,
    "isOperating": false,
    "approvalDate": "2025-09-25"
  },
  {
    "id": 6444,
    "businessName": "레인보우 게임렌드",
    "longitude": 127.5425482,
    "latitude": 36.9065681,
    "address": "충청북도 음성군 맹동면 대하2길 16, 108호",
    "totalGameMachines": null,
    "phone": null,
    "isOperating": false,
    "approvalDate": "2025-09-30"
  },
  {
    "id": 6465,
    "businessName": "블링팝 청주분평점",
    "longitude": 127.4899733,
    "latitude": 36.6071894,
    "address": "충청북도 청주시 서원구 1순환로1107번길 20, 해피존 1층 101호 (분평동)",
    "totalGameMachines": null,
    "phone": null,
    "isOperating": false,
    "approvalDate": "2025-10-01"
  },
  {
    "id": 6480,
    "businessName": "NH플레이존",
    "longitude": 127.9931626,
    "latitude": 36.8455881,
    "address": "충청북도 충주시 수안보면 온천중앙길 43, 농협연수원",
    "totalGameMachines": null,
    "phone": null,
    "isOperating": false,
    "approvalDate": "2025-10-02"
  },
  {
    "id": 6500,
    "businessName": "TOYSPLAY",
    "longitude": 127.9290221,
    "latitude": 36.9907424,
    "address": "충청북도 충주시 연수로 6-8 (금릉동)",
    "totalGameMachines": null,
    "phone": null,
    "isOperating": false,
    "approvalDate": "2025-10-01"
  },
  {
    "id": 6520,
    "businessName": "PACHINKO",
    "longitude": 127.4889922,
    "latitude": 36.6349273,
    "address": "충청북도 청주시 상당구 성안로 22-2, 1층 (북문로1가)",
    "totalGameMachines": null,
    "phone": null,
    "isOperating": false,
    "approvalDate": "2025-10-16"
  },
  {
    "id": 6597,
    "businessName": "캐칭덕 오창점",
    "longitude": 127.4281457,
    "latitude": 36.7162103,
    "address": "충청북도 청주시 청원구 오창읍 중심상업로 65-13, 104호",
    "totalGameMachines": null,
    "phone": null,
    "isOperating": false,
    "approvalDate": "2025-10-31"
  },
  {
    "id": 6633,
    "businessName": "와리가리",
    "longitude": 127.4874624,
    "latitude": 36.6342156,
    "address": "충청북도 청주시 상당구 상당로69번길 55, 102, 103호 (서문동)",
    "totalGameMachines": null,
    "phone": null,
    "isOperating": false,
    "approvalDate": "2025-11-07"
  },
  {
    "id": 6648,
    "businessName": "빵빵오락실",
    "longitude": 127.4336149,
    "latitude": 36.6258154,
    "address": "충청북도 청주시 흥덕구 풍년로 148-1, 1층 (가경동)",
    "totalGameMachines": null,
    "phone": null,
    "isOperating": false,
    "approvalDate": "2025-11-10"
  },
  {
    "id": 6667,
    "businessName": "행운뽑기",
    "longitude": 127.5103116,
    "latitude": 36.617242,
    "address": "충청북도 청주시 상당구 중흥로 149, 1층 (용암동)",
    "totalGameMachines": null,
    "phone": null,
    "isOperating": false,
    "approvalDate": "2025-11-21"
  },
  {
    "id": 6734,
    "businessName": "더플레이 진천점",
    "longitude": 127.5358896,
    "latitude": 36.9045493,
    "address": "충청북도 진천군 덕산읍 시가로 46, 1층 107~109호",
    "totalGameMachines": null,
    "phone": null,
    "isOperating": false,
    "approvalDate": "2025-11-12"
  },
  {
    "id": 6737,
    "businessName": "원더랜드 게임존",
    "longitude": 127.778221,
    "latitude": 36.175432,
    "address": "충청북도 영동군 영동읍 중앙로 44, 1층동",
    "totalGameMachines": null,
    "phone": null,
    "isOperating": false,
    "approvalDate": "2025-11-28"
  },
  {
    "id": 6742,
    "businessName": "봉봉스테이션 진천점",
    "longitude": 127.4444907,
    "latitude": 36.854948,
    "address": "충청북도 진천군 진천읍 중앙동로 53, 1층",
    "totalGameMachines": null,
    "phone": null,
    "isOperating": false,
    "approvalDate": "2025-11-28"
  },
  {
    "id": 6773,
    "businessName": "피키팝",
    "longitude": 127.49732,
    "latitude": 36.6720541,
    "address": "충청북도 청주시 청원구 율량로 104, 107호 (주성동)",
    "totalGameMachines": null,
    "phone": null,
    "isOperating": false,
    "approvalDate": "2025-11-24"
  },
  {
    "id": 6781,
    "businessName": "커넥트 플레이 플러스",
    "longitude": 127.430721,
    "latitude": 36.6270005,
    "address": "충청북도 청주시 흥덕구 2순환로 1225, 청주센트럴시티(터미널복합) 6층 619호 (가경동)",
    "totalGameMachines": null,
    "phone": null,
    "isOperating": false,
    "approvalDate": "2025-12-01"
  },
  {
    "id": 6786,
    "businessName": "커넥트 플레이 샵",
    "longitude": 127.430721,
    "latitude": 36.6270005,
    "address": "충청북도 청주시 흥덕구 2순환로 1225, 청주센트럴시티(터미널복합) 6층 626호 (가경동)",
    "totalGameMachines": null,
    "phone": null,
    "isOperating": false,
    "approvalDate": "2025-12-01"
  },
  {
    "id": 6804,
    "businessName": "원픽스테이션",
    "longitude": 128.2246687,
    "latitude": 37.1577303,
    "address": "충청북도 제천시 죽하로13길 4, 1층 (장락동)",
    "totalGameMachines": null,
    "phone": null,
    "isOperating": false,
    "approvalDate": "2025-12-05"
  },
  {
    "id": 6840,
    "businessName": "팡야팡야 청주 개신점",
    "longitude": 127.4457841,
    "latitude": 36.6186339,
    "address": "충청북도 청주시 서원구 복대로 15, 1층 (개신동)",
    "totalGameMachines": null,
    "phone": null,
    "isOperating": false,
    "approvalDate": "2025-12-02"
  },
  {
    "id": 6870,
    "businessName": "BONG BONG STATION 청주오송점",
    "longitude": 127.3296976,
    "latitude": 36.6305732,
    "address": "충청북도 청주시 흥덕구 오송읍 오송생명5로 184-4, 오송생명타워 102호",
    "totalGameMachines": null,
    "phone": null,
    "isOperating": false,
    "approvalDate": "2025-12-12"
  },
  {
    "id": 6873,
    "businessName": "LUKY VIKY 청주송절동점",
    "longitude": 127.4523872,
    "latitude": 36.6667999,
    "address": "충청북도 청주시 흥덕구 송화로166번길 7-9, 101호 (송절동)",
    "totalGameMachines": null,
    "phone": null,
    "isOperating": false,
    "approvalDate": "2025-12-12"
  }
]